[{"ponto": 1100001588, "UR Responsável": "REPO", "localizacao": "Substação Eletronorte Vilhena", "data_instalacao": "2006-05-04 00:00:00", "cota_terreno": 598, "latitude_decimal": -12.741111, "longitude_decimal": -60.1325, "utme": 811394, "utmn": 8589769, "bacia": "Rio Amazonas", "municipio": "Vilhena", "natureza": "Piezometro", "nome": "ELETRONORTE", "subbacia": "Rios Amazonas, Madeira, Guapore e outros", "situacao": "Poço RIMAS equipado c medidor automático de nível", "uf": "RO", "uso_agua": "Sem uso"}, {"ponto": 1100001734, "UR Responsável": "REPO", "localizacao": "Loteamento Barão do Melgaço", "data_instalacao": "1998-07-01 00:00:00", "cota_terreno": 614, "latitude_decimal": -12.715556, "longitude_decimal": -60.122778, "utme": 812482, "utmn": 8592586, "bacia": "Rio Amazonas", "municipio": "Vilhena", "natureza": "Piezometro", "nome": "BARAO DO MELGACO", "subbacia": "Rios Amazonas, Madeira, Guapore e outros", "situacao": "Poço RIMAS equipado c medidor automático de nível", "uf": "RO", "uso_agua": "Sem uso"}, {"ponto": 1100001785, "UR Responsável": "REPO", "localizacao": "Cooperfrutos - BR 174, km 15 - Gleba Ique", "data_instalacao": "2011-04-05 00:00:00", "cota_terreno": 604.6, "latitude_decimal": -12.635, "longitude_decimal": -60.091944, "utme": 815932, "utmn": 8601468, "bacia": "Rio Amazonas", "municipio": "Vilhena", "natureza": "Piezometro", "nome": "COOPERFRUTOS", "subbacia": "Rios Amazonas, Tapajos, Juruena e outros", "situacao": "Poço RIMAS equipado c medidor automático de nível", "uf": "RO", "uso_agua": "Sem uso"}, {"ponto": 1100001786, "UR Responsável": "REPO", "localizacao": "ESCOLA NOEME BARROS", "data_instalacao": "2011-04-08 00:00:00", "cota_terreno": 585.4, "latitude_decimal": -12.730278, "longitude_decimal": -60.154444, "utme": 809022, "utmn": 8590994, "bacia": "Rio Amazonas", "municipio": "Vilhena", "natureza": "Piezometro", "nome": "NOEME", "subbacia": "Rios Amazonas, Madeira, Guapore e outros", "situacao": "Poço RIMAS equipado c medidor automático de nível", "uf": "RO", "uso_agua": "Sem uso"}, {"ponto": 1100001787, "UR Responsável": "REPO", "localizacao": "ESCOLA SANTA LUZIA", "data_instalacao": "2011-04-09 00:00:00", "cota_terreno": 597.4, "latitude_decimal": -12.7525, "longitude_decimal": -60.111111, "utme": 813705, "utmn": 8588482, "bacia": "Rio Amazonas", "municipio": "Vilhena", "natureza": "Piezometro", "nome": "SANTA LUZIA", "subbacia": "Rios Amazonas, Madeira, Guapore e outros", "situacao": "Poço RIMAS equipado c medidor automático de nível", "uf": "RO", "uso_agua": "Sem uso"}, {"ponto": 1100001788, "UR Responsável": "REPO", "localizacao": "Escola Tenente Melo", "data_instalacao": "2011-04-13 00:00:00", "cota_terreno": 360, "latitude_decimal": -12.446389, "longitude_decimal": -60.515278, "utme": 770109, "utmn": 8622817, "bacia": "Rio Amazonas", "municipio": "Vilhena", "natureza": "Piezometro", "nome": "TENENTE MELO", "subbacia": "Rios Amazonas, Madeira, Guapore e outros", "situacao": "Poço RIMAS não equipado", "uf": "RO", "uso_agua": "Sem uso"}, {"ponto": 1100001789, "UR Responsável": "REPO", "localizacao": "Escola Valter Jose Zanella", "data_instalacao": "2011-04-15 00:00:00", "cota_terreno": 358.2, "latitude_decimal": -12.229167, "longitude_decimal": -60.687778, "utme": 751555, "utmn": 8647025, "bacia": "Rio Amazonas", "municipio": "Chupinguaia", "natureza": "Piezometro", "nome": "VALTER ZANELLA", "subbacia": "Rios Amazonas, Madeira, Guapore e outros", "situacao": "Poço RIMAS equipado c medidor automático de nível", "uf": "RO", "uso_agua": "Outros (lazer,etc.)"}, {"ponto": 1100002065, "UR Responsável": "REPO", "localizacao": "IFRO - zona urbana da cidade de Vilhena-RO,", "data_instalacao": "2011-11-28 00:00:00", "cota_terreno": 585.8, "latitude_decimal": -12.705833, "longitude_decimal": -60.1175, "utme": 813068, "utmn": 8593657, "bacia": "Rio Amazonas", "municipio": "Vilhena", "natureza": "Piezometro", "nome": "IFRO", "subbacia": "Rios Amazonas, Madeira, Guapore e outros", "situacao": "Poço RIMAS equipado c medidor automático de nível", "uf": "RO", "uso_agua": "Sem uso"}, {"ponto": 1100002066, "UR Responsável": "REPO", "localizacao": "Linha Rio Claro, Sítio Campo Largo- LT 153,", "data_instalacao": "2011-11-18 00:00:00", "cota_terreno": 496.9, "latitude_decimal": -11.373056, "longitude_decimal": -59.968333, "utme": 176007, "utmn": 8741110, "bacia": "Rio Amazonas", "municipio": "Vilhena", "natureza": "Piezometro", "nome": "Rio Claro", "subbacia": "Rios Amazonas, Madeira, Guapore e outros", "situacao": "Poço RIMAS equipado c medidor automático de nível", "uf": "RO", "uso_agua": "Sem uso"}, {"ponto": 1100002140, "UR Responsável": "REPO", "localizacao": "E,E, Maria Carmosina, Rua: Raimundo Cantuária,", "data_instalacao": "2011-12-09 00:00:00", "cota_terreno": 86, "latitude_decimal": -8.758333, "longitude_decimal": -63.842778, "utme": 407302, "utmn": 9031759, "bacia": "Rio Amazonas", "municipio": "Porto Velho", "natureza": "Piezometro", "nome": "Maria Carmosina", "subbacia": "Rios Amazonas, Madeira, Guapore e outros", "situacao": "Poço RIMAS equipado c medidor automático de nível", "uf": "RO", "uso_agua": "Sem uso"}, {"ponto": 1100002141, "UR Responsável": "REPO", "localizacao": "Escola Jânio Quadros,", "data_instalacao": "2011-12-16 00:00:00", "cota_terreno": 86, "latitude_decimal": -8.770833, "longitude_decimal": -63.8175, "utme": 410086, "utmn": 9030383, "bacia": "Rio Amazonas", "municipio": "Porto Velho", "natureza": "Piezometro", "nome": "Janio Quadros", "subbacia": "Rios Amazonas, Madeira, Guapore e outros", "situacao": "Poço RIMAS equipado c medidor automático de nível", "uf": "RO", "uso_agua": "Sem uso"}, {"ponto": 1100002142, "UR Responsável": "REPO", "localizacao": "CPRM, Rua: Lauro Sodré nº 2561, São Sebastião,", "data_instalacao": "2011-12-20 00:00:00", "cota_terreno": 8, "latitude_decimal": -8.741667, "longitude_decimal": -63.901944, "utme": 400791, "utmn": 9033586, "bacia": "Rio Amazonas", "municipio": "Porto Velho", "natureza": "Piezometro", "nome": "CPRM - REPO", "subbacia": "Rios Amazonas, Madeira, Guapore e outros", "situacao": "Poço RIMAS equipado c medidor automático de nível", "uf": "RO", "uso_agua": "Sem uso"}, {"ponto": 1100002143, "UR Responsável": "REPO", "localizacao": "E,E,Jorge Salazar dos Santos,Rua: Jerônimo Santana", "data_instalacao": "2011-12-12 00:00:00", "cota_terreno": 84, "latitude_decimal": -8.792578, "longitude_decimal": -63.874706, "utme": 403800, "utmn": 9027967, "bacia": "Rio Amazonas", "municipio": "Porto Velho", "natureza": "Poço tubular", "nome": "", "subbacia": "Rios Amazonas, Madeira, Guapore e outros", "situacao": "Não instalado", "uf": "RO", "uso_agua": ""}, {"ponto": 1100002485, "UR Responsável": "REPO", "localizacao": "APROSIS", "data_instalacao": "2013-03-08 00:00:00", "cota_terreno": 560, "latitude_decimal": -12.806667, "longitude_decimal": -60.365833, "utme": 785965, "utmn": 8582781, "bacia": "Rio Amazonas", "municipio": "Vilhena", "natureza": "Piezometro", "nome": "APROCIS", "subbacia": "Rios Amazonas, Madeira, Guapore e outros", "situacao": "Poço RIMAS equipado c medidor automático de nível", "uf": "RO", "uso_agua": "Sem uso"}, {"ponto": 1100002486, "UR Responsável": "REPO", "localizacao": "BELA MANHA", "data_instalacao": "2013-03-29 00:00:00", "cota_terreno": 543, "latitude_decimal": -12.671111, "longitude_decimal": -60.190833, "utme": 805139, "utmn": 8597588, "bacia": "Rio Amazonas", "municipio": "Vilhena", "natureza": "Piezometro", "nome": "BELA MANHA", "subbacia": "Rios Amazonas, Madeira, Guapore e outros", "situacao": "Poço RIMAS equipado c medidor automático de nível", "uf": "RO", "uso_agua": "Sem uso"}, {"ponto": 1100002487, "UR Responsável": "REPO", "localizacao": "APCSA", "data_instalacao": "2013-03-10 00:00:00", "cota_terreno": 625, "latitude_decimal": -12.773333, "longitude_decimal": -60.188333, "utme": 805288, "utmn": 8586269, "bacia": "Rio Amazonas", "municipio": "Vilhena", "natureza": "Piezometro", "nome": "APCSA", "subbacia": "Rios Amazonas, Madeira, Guapore e outros", "situacao": "Poço RIMAS equipado c medidor automático de nível", "uf": "RO", "uso_agua": "Sem uso"}, {"ponto": 1100002488, "UR Responsável": "REPO", "localizacao": "A V V", "data_instalacao": "2013-03-17 00:00:00", "cota_terreno": 502, "latitude_decimal": -12.726944, "longitude_decimal": -60.228056, "utme": 801027, "utmn": 8591451, "bacia": "Rio Amazonas", "municipio": "Vilhena", "natureza": "Piezometro", "nome": "A V V", "subbacia": "Rios Amazonas, Madeira, Guapore e outros", "situacao": "Poço RIMAS equipado c medidor automático de nível", "uf": "RO", "uso_agua": "Sem uso"}, {"ponto": 1100002614, "UR Responsável": "REPO", "localizacao": "ESCOLA PADRE CRISTÓVÃO ARNAUDI", "data_instalacao": "2015-06-18 00:00:00", "cota_terreno": "", "latitude_decimal": -7.616944, "longitude_decimal": -72.699722, "utme": 753787, "utmn": 9157371, "bacia": "Rio Amazonas", "municipio": "Cruzeiro do Sul", "natureza": "Piezometro", "nome": "PADRE ARNAUD", "subbacia": "Rios Solimões, Jurua, Japura e outros", "situacao": "Poço RIMAS equipado c medidor automático de nível", "uf": "AC", "uso_agua": "Sem uso"}, {"ponto": 1100002615, "UR Responsável": "REPO", "localizacao": "VILA OLÍMPICA", "data_instalacao": "2015-06-17 00:00:00", "cota_terreno": "", "latitude_decimal": -7.593056, "longitude_decimal": -72.749444, "utme": 748313, "utmn": 9160042, "bacia": "Rio Amazonas", "municipio": "Cruzeiro do Sul", "natureza": "Piezometro", "nome": "VILA OLÍMPICA", "subbacia": "Rios Solimões, Jurua, Japura e outros", "situacao": "Poço RIMAS equipado c medidor automático de nível", "uf": "AC", "uso_agua": ""}, {"ponto": 1100002616, "UR Responsável": "REPO", "localizacao": "DARCY BEZERRA", "data_instalacao": "2015-06-17 00:00:00", "cota_terreno": "", "latitude_decimal": -7.601944, "longitude_decimal": -72.683333, "utme": 755605, "utmn": 9159021, "bacia": "Rio Amazonas", "municipio": "Cruzeiro do Sul", "natureza": "Piezometro", "nome": "DARCY BEZERRA", "subbacia": "Rios Solimões, Jurua, Japura e outros", "situacao": "Poço RIMAS equipado c medidor automático de nível", "uf": "AC", "uso_agua": "Sem uso"}, {"ponto": 1100002617, "UR Responsável": "REPO", "localizacao": "CANELA FINA", "data_instalacao": "2015-06-19 00:00:00", "cota_terreno": "", "latitude_decimal": -7.548889, "longitude_decimal": -72.725833, "utme": 750944, "utmn": 9164915, "bacia": "Rio Amazonas", "municipio": "Cruzeiro do Sul", "natureza": "Piezometro", "nome": "CANELA FINA", "subbacia": "Rios Solimões, Jurua, Japura e outros", "situacao": "Poço RIMAS equipado c medidor automático de nível", "uf": "AC", "uso_agua": ""}, {"ponto": 1100002753, "UR Responsável": "REPO", "localizacao": "PAZ AMBIENTAL", "data_instalacao": "2014-05-28 00:00:00", "cota_terreno": 555.84, "latitude_decimal": -12.688333, "longitude_decimal": -60.153889, "utme": 809128, "utmn": 8595636, "bacia": "Rio Amazonas", "municipio": "Vilhena", "natureza": "Piezometro", "nome": "PAZ AMBIENTAL", "subbacia": "Rios Amazonas, Madeira, Guapore e outros", "situacao": "Poço RIMAS equipado c medidor automático de nível", "uf": "RO", "uso_agua": ""}, {"ponto": 1100002754, "UR Responsável": "REPO", "localizacao": "ASPRO UNIAO", "data_instalacao": "2014-05-31 00:00:00", "cota_terreno": 528, "latitude_decimal": -12.5175, "longitude_decimal": -60.153056, "utme": 809418, "utmn": 8614546, "bacia": "Rio Amazonas", "municipio": "Vilhena", "natureza": "Piezometro", "nome": "ASPRO NOVA UNIAO", "subbacia": "Rios Amazonas, Madeira, Guapore e outros", "situacao": "Poço RIMAS equipado c medidor automático de nível", "uf": "RO", "uso_agua": ""}, {"ponto": 1100002755, "UR Responsável": "REPO", "localizacao": "FAZENDA SANTA CATARINA", "data_instalacao": "2014-06-03 00:00:00", "cota_terreno": 535.83, "latitude_decimal": -12.455, "longitude_decimal": -59.930833, "utme": 181370, "utmn": 8621369, "bacia": "Rio Amazonas", "municipio": "Vilhena", "natureza": "Piezometro", "nome": "SANTA CATARINA", "subbacia": "Rios Amazonas, Tapajos, Juruena e outros", "situacao": "Poço RIMAS equipado c medidor automático de nível", "uf": "RO", "uso_agua": ""}, {"ponto": 1100002756, "UR Responsável": "REPO", "localizacao": "DIVISA RONDONIA/ MATO GROSSO", "data_instalacao": "2014-06-04 00:00:00", "cota_terreno": 506.02, "latitude_decimal": -12.347778, "longitude_decimal": -59.846667, "utme": 190399, "utmn": 8633339, "bacia": "Rio Amazonas", "municipio": "Vilhena", "natureza": "Piezometro", "nome": "DIVISA", "subbacia": "Rios Amazonas, Tapajos, Juruena e outros", "situacao": "Poço RIMAS equipado c medidor automático de nível", "uf": "RO", "uso_agua": ""}, {"ponto": 1100002757, "UR Responsável": "REPO", "localizacao": "FAZENDA RENASCER", "data_instalacao": "2015-06-22 00:00:00", "cota_terreno": "", "latitude_decimal": -7.495556, "longitude_decimal": -72.775278, "utme": 745515, "utmn": 9170844, "bacia": "Rio Amazonas", "municipio": "Cruzeiro do Sul", "natureza": "Poço tubular", "nome": "Fazenda Renascer", "subbacia": "Rios Solimões, Jurua, Japura e outros", "situacao": "Poço RIMAS equipado c medidor automático de nível", "uf": "AC", "uso_agua": ""}, {"ponto": 1100002758, "UR Responsável": "REPO", "localizacao": "SITIO SAO VICENTE", "data_instalacao": "2015-06-20 00:00:00", "cota_terreno": "", "latitude_decimal": -7.475833, "longitude_decimal": -72.821389, "utme": 740435, "utmn": 9173051, "bacia": "Rio Amazonas", "municipio": "Cruzeiro do Sul", "natureza": "Piezometro", "nome": "Sitio São Vicente", "subbacia": "Rios Solimões, Jurua, Japura e outros", "situacao": "Poço RIMAS não equipado", "uf": "AC", "uso_agua": ""}, {"ponto": 1100002759, "UR Responsável": "REPO", "localizacao": "CENTRO MULTIUSO - Vila Santa Rosa", "data_instalacao": "2015-06-19 00:00:00", "cota_terreno": "", "latitude_decimal": -7.665, "longitude_decimal": -72.811944, "utme": 741373, "utmn": 9152119, "bacia": "Rio Amazonas", "municipio": "Cruzeiro do Sul", "natureza": "Poço tubular", "nome": "SANTA ROSA", "subbacia": "Rios Solimões, Jurua, Japura e outros", "situacao": "Poço RIMAS equipado c medidor automático de nível", "uf": "AC", "uso_agua": ""}, {"ponto": 1100002760, "UR Responsável": "REPO", "localizacao": "EMEF EMIDIO BRAGA DE VASCONCELOS", "data_instalacao": "2015-06-18 00:00:00", "cota_terreno": "", "latitude_decimal": -7.580833, "longitude_decimal": -72.712778, "utme": 752367, "utmn": 9161374, "bacia": "Rio Amazonas", "municipio": "Cruzeiro do Sul", "natureza": "Piezometro", "nome": "EMEF Emidio Braga de Vasconcelos", "subbacia": "Rios Solimões, Jurua, Japura e outros", "situacao": "Poço RIMAS equipado c medidor automático de nível", "uf": "AC", "uso_agua": ""}, {"ponto": 1300002939, "UR Responsável": "SUREG-MA", "localizacao": "GILBERTO MESTRINHO", "data_instalacao": "2015-02-26 00:00:00", "cota_terreno": 50, "latitude_decimal": -3.068055, "longitude_decimal": -59.929722, "utme": 174316, "utmn": 9660437, "bacia": "Rio Amazonas", "municipio": "Manaus", "natureza": "Poço de monitoramento", "nome": "PT - 18", "subbacia": "Rios Amazonas, Madeira, Guapore e outros", "situacao": "Poço RIMAS desativado", "uf": "AM", "uso_agua": "Sem uso"}, {"ponto": 1300004283, "UR Responsável": "SUREG-MA", "localizacao": "CINTURÃO VERDE", "data_instalacao": "2013-08-22 00:00:00", "cota_terreno": 80.48, "latitude_decimal": 2.798333, "longitude_decimal": -60.704444, "utme": 755205, "utmn": 10309553, "bacia": "Rio Amazonas", "municipio": "Boa Vista", "natureza": "Poço de monitoramento", "nome": "PT - 17", "subbacia": "Rios Solimões, Negro, Branco e outros", "situacao": "Poço RIMAS equipado c medidor automático de nível", "uf": "RR", "uso_agua": "Sem uso"}, {"ponto": 1300004309, "UR Responsável": "SUREG-MA", "localizacao": "SÃO VICENTE", "data_instalacao": "2006-04-24 00:00:00", "cota_terreno": "", "latitude_decimal": 2.813611, "longitude_decimal": -60.685, "utme": 757364, "utmn": 10311233, "bacia": "Rio Amazonas", "municipio": "Boa Vista", "natureza": "Poço de monitoramento", "nome": "PT-20", "subbacia": "Rios Solimões, Negro, Branco e outros", "situacao": "Poço RIMAS equipado c medidor automático de nível", "uf": "RR", "uso_agua": "Abastecimento urbano"}, {"ponto": 1300005280, "UR Responsável": "SUREG-MA", "localizacao": "PETRÓPOLIS", "data_instalacao": "2010-11-09 00:00:00", "cota_terreno": 48.85, "latitude_decimal": -3.101667, "longitude_decimal": -59.994167, "utme": 167156, "utmn": 9656697, "bacia": "Rio Amazonas", "municipio": "Manaus", "natureza": "Poço de monitoramento", "nome": "PT - 01", "subbacia": "Rios Solimões, Negro, Branco e outros", "situacao": "Poço RIMAS equipado c medidor automático de nível", "uf": "AM", "uso_agua": "Sem uso"}, {"ponto": 1300006064, "UR Responsável": "SUREG-MA", "localizacao": "FLORES", "data_instalacao": "2012-11-15 00:00:00", "cota_terreno": 58.8, "latitude_decimal": -3.072778, "longitude_decimal": -60.018056, "utme": 831494, "utmn": 9659899, "bacia": "Rio Amazonas", "municipio": "Manaus", "natureza": "Poço de monitoramento", "nome": "PT - 2", "subbacia": "Rios Solimões, Negro, Branco e outros", "situacao": "Poço RIMAS equipado c medidor automático de nível", "uf": "AM", "uso_agua": "Sem uso"}, {"ponto": 1300006065, "UR Responsável": "SUREG-MA", "localizacao": "TARUMÃ", "data_instalacao": "2012-07-05 00:00:00", "cota_terreno": 81.75, "latitude_decimal": -3.053611, "longitude_decimal": -60.078056, "utme": 824822, "utmn": 9662038, "bacia": "Rio Amazonas", "municipio": "Manaus", "natureza": "Poço de monitoramento", "nome": "PT - 03", "subbacia": "Rios Solimões, Negro, Branco e outros", "situacao": "Poço RIMAS equipado c medidor automático de nível", "uf": "AM", "uso_agua": "Sem uso"}, {"ponto": 1300006066, "UR Responsável": "SUREG-MA", "localizacao": "DISTRITO INDUSTRIAL I", "data_instalacao": "2012-07-30 00:00:00", "cota_terreno": 45.8, "latitude_decimal": -3.134444, "longitude_decimal": -59.970833, "utme": 169763, "utmn": 9653077, "bacia": "Rio Amazonas", "municipio": "Manaus", "natureza": "Poço de monitoramento", "nome": "PT- 04", "subbacia": "Rios Solimões, Negro, Branco e outros", "situacao": "Poço RIMAS equipado c medidor automático de nível", "uf": "AM", "uso_agua": "Sem uso"}, {"ponto": 1300006067, "UR Responsável": "SUREG-MA", "localizacao": "NOVO ALEIXO", "data_instalacao": "2012-07-05 00:00:00", "cota_terreno": 60.68, "latitude_decimal": -3.065, "longitude_decimal": -59.972778, "utme": 169524, "utmn": 9660762, "bacia": "Rio Amazonas", "municipio": "Manaus", "natureza": "Poço de monitoramento", "nome": "PT - 5", "subbacia": "Rios Solimões, Negro, Branco e outros", "situacao": "Poço RIMAS equipado c medidor automático de nível", "uf": "AM", "uso_agua": "Sem uso"}, {"ponto": 1300006186, "UR Responsável": "SUREG-MA", "localizacao": "UFRR-UNIVERSIDADE FEDERAL DE RORAIMA", "data_instalacao": "2011-11-28 00:00:00", "cota_terreno": 80.02, "latitude_decimal": 2.836667, "longitude_decimal": -60.693611, "utme": 756401, "utmn": 10313796, "bacia": "Rio Amazonas", "municipio": "Boa Vista", "natureza": "Poço de monitoramento", "nome": "PT - 06", "subbacia": "Rios Solimões, Negro, Branco e outros", "situacao": "Poço RIMAS equipado c medidor automático de nível", "uf": "RR", "uso_agua": "Sem uso"}, {"ponto": 1300006187, "UR Responsável": "SUREG-MA", "localizacao": "CENTRO DIFUSÃO TECNOLÓGICO", "data_instalacao": "2012-06-13 00:00:00", "cota_terreno": 80.21, "latitude_decimal": 2.902222, "longitude_decimal": -60.651667, "utme": 761052, "utmn": 10321058, "bacia": "Rio Amazonas", "municipio": "Boa Vista", "natureza": "Poço de monitoramento", "nome": "PT - 07", "subbacia": "Rios Solimões, Negro, Branco e outros", "situacao": "Poço RIMAS equipado c medidor automático de nível", "uf": "RR", "uso_agua": "Sem uso"}, {"ponto": 1300006509, "UR Responsável": "SUREG-MA", "localizacao": "FAZENDA BEZERRA (RODOVIA 401, km-54)", "data_instalacao": "2012-06-12 00:00:00", "cota_terreno": 109.12, "latitude_decimal": 3.085833, "longitude_decimal": -60.344167, "utme": 795209, "utmn": 10341450, "bacia": "Rio Amazonas", "municipio": "Bonfim", "natureza": "Poço de monitoramento", "nome": "PT - 08", "subbacia": "Rios Solimões, Negro, Branco e outros", "situacao": "Poço RIMAS equipado c medidor automático de nível", "uf": "RR", "uso_agua": "Sem uso"}, {"ponto": 1300007221, "UR Responsável": "SUREG-MA", "localizacao": "FAZENDA CACHOEIRA DA ONÇA (BR-174, km-108)", "data_instalacao": "2013-03-26 00:00:00", "cota_terreno": 81.86, "latitude_decimal": -2.035278, "longitude_decimal": -60.026389, "utme": 830831, "utmn": 9774734, "bacia": "Rio Amazonas", "municipio": "Presidente Figueiredo", "natureza": "Poço de monitoramento", "nome": "PT - 09", "subbacia": "Rios Amazonas, Trombetas e outros", "situacao": "Poço RIMAS equipado c medidor automático de nível", "uf": "AM", "uso_agua": "Sem uso"}, {"ponto": 1300007222, "UR Responsável": "SUREG-MA", "localizacao": "SÍTIO SÃO JUDAS TADEU (BR-174, km-128)", "data_instalacao": "2013-03-21 00:00:00", "cota_terreno": 173.9, "latitude_decimal": -1.867222, "longitude_decimal": -60.080556, "utme": 824833, "utmn": 9793345, "bacia": "Rio Amazonas", "municipio": "Presidente Figueiredo", "natureza": "Poço de monitoramento", "nome": "PT - 10", "subbacia": "Rios Solimões, Negro, Branco e outros", "situacao": "Poço RIMAS desativado", "uf": "AM", "uso_agua": "Sem uso"}, {"ponto": 1300007223, "UR Responsável": "SUREG-MA", "localizacao": "VILA DE BALBINA (Rodovia AM-240, km-77)", "data_instalacao": "2013-03-22 00:00:00", "cota_terreno": 166.37, "latitude_decimal": -1.939167, "longitude_decimal": -59.424167, "utme": 230322, "utmn": 9785469, "bacia": "Rio Amazonas", "municipio": "Presidente Figueiredo", "natureza": "Poço de monitoramento", "nome": "PT - 11", "subbacia": "Rios Amazonas, Trombetas e outros", "situacao": "Poço RIMAS equipado c medidor automático de nível", "uf": "AM", "uso_agua": "Sem uso"}, {"ponto": 1300007224, "UR Responsável": "SUREG-MA", "localizacao": "FAZENDA DOS SANTOS (Rodovia AM-240, km-42 )", "data_instalacao": "2013-10-21 00:00:00", "cota_terreno": 169.5, "latitude_decimal": -2.048611, "longitude_decimal": -59.676944, "utme": 202203, "utmn": 9773316, "bacia": "Rio Amazonas", "municipio": "Presidente Figueiredo", "natureza": "Poço de monitoramento", "nome": "PT - 12", "subbacia": "Rios Amazonas, Trombetas e outros", "situacao": "Poço RIMAS equipado c medidor automático de nível", "uf": "AM", "uso_agua": "Sem uso"}, {"ponto": 1300007356, "UR Responsável": "SUREG-MA", "localizacao": "HARAS CUNHÃ PUCÁ (Rodovia 401, km-06)", "data_instalacao": "2013-04-10 00:00:00", "cota_terreno": 86.5, "latitude_decimal": 2.781944, "longitude_decimal": -60.6375, "utme": 762655, "utmn": 10307755, "bacia": "Rio Amazonas", "municipio": "Cantá", "natureza": "Poço de monitoramento", "nome": "PT - 13", "subbacia": "Rios Solimões, Negro, Branco e outros", "situacao": "Poço RIMAS desativado", "uf": "RR", "uso_agua": "Sem uso"}, {"ponto": 1300007357, "UR Responsável": "SUREG-MA", "localizacao": "PARQUE DE EXPOSIÇÃO", "data_instalacao": "2013-08-21 00:00:00", "cota_terreno": 88.44, "latitude_decimal": 3.349444, "longitude_decimal": -59.841111, "utme": 184261, "utmn": 10370677, "bacia": "Rio Amazonas", "municipio": "Bonfim", "natureza": "Poço de monitoramento", "nome": "PT - 14", "subbacia": "Rios Solimões, Negro, Branco e outros", "situacao": "Poço RIMAS equipado c medidor automático de nível", "uf": "RR", "uso_agua": "Sem uso"}, {"ponto": 1300007358, "UR Responsável": "SUREG-MA", "localizacao": "FAZENDA CENTRAL (Rodovia 401, km-76)", "data_instalacao": "2013-08-19 00:00:00", "cota_terreno": 142.3, "latitude_decimal": 3.225278, "longitude_decimal": -60.171667, "utme": 814356, "utmn": 10356932, "bacia": "Rio Amazonas", "municipio": "Bonfim", "natureza": "Poço de monitoramento", "nome": "PT - 15", "subbacia": "Rios Solimões, Negro, Branco e outros", "situacao": "Poço RIMAS equipado c medidor automático de nível", "uf": "RR", "uso_agua": "Sem uso"}, {"ponto": 1300007580, "UR Responsável": "SUREG-MA", "localizacao": "FAZENDA TRÊS MENINAS (Rodovia BR-401, km-36)", "data_instalacao": "2013-08-21 00:00:00", "cota_terreno": 77.27, "latitude_decimal": 2.976944, "longitude_decimal": -60.457778, "utme": 782600, "utmn": 10329372, "bacia": "Rio Amazonas", "municipio": "Bonfim", "natureza": "Poço de monitoramento", "nome": "PT - 16", "subbacia": "Rios Solimões, Negro, Branco e outros", "situacao": "Poço RIMAS equipado c medidor automático de nível", "uf": "RR", "uso_agua": "Sem uso"}, {"ponto": 1300009056, "UR Responsável": "SUREG-MA", "localizacao": "PROXIMIDADES DO ATERRO SANITÁRIO DE MANAUS", "data_instalacao": "2015-05-21 00:00:00", "cota_terreno": 61, "latitude_decimal": -2.958889, "longitude_decimal": -60.007222, "utme": 832733, "utmn": 9672501, "bacia": "Rio Amazonas", "municipio": "Manaus", "natureza": "Poço de monitoramento", "nome": "PT-19", "subbacia": "Rios Solimões, Negro, Branco e outros", "situacao": "Poço RIMAS desativado", "uf": "AM", "uso_agua": "Sem uso"}, {"ponto": 1300010341, "UR Responsável": "SUREG-MA", "localizacao": "COROADO", "data_instalacao": "2016-06-20 00:00:00", "cota_terreno": "", "latitude_decimal": -3.101111, "longitude_decimal": -59.979444, "utme": 168795, "utmn": 9656763, "bacia": "Rio Amazonas", "municipio": "Manaus", "natureza": "Poço de monitoramento", "nome": "PT-21", "subbacia": "Rios Solimões, Negro, Branco e outros", "situacao": "Poço RIMAS não equipado", "uf": "AM", "uso_agua": "Sem uso"}, {"ponto": 1300011877, "UR Responsável": "SUREG-MA", "localizacao": "NOVA CIDADE", "data_instalacao": "2020-04-17 00:00:00", "cota_terreno": "", "latitude_decimal": -3.01, "longitude_decimal": -59.986389, "utme": 167993, "utmn": 9666846, "bacia": "Rio Amazonas", "municipio": "Manaus", "natureza": "Piezometro", "nome": "PT-22", "subbacia": "Rios Solimões, Negro, Branco e outros", "situacao": "Poço RIMAS equipado c medidor automático de nível", "uf": "AM", "uso_agua": "Sem uso"}, {"ponto": 1300011937, "UR Responsável": "SUREG-MA", "localizacao": "REDENÇÃO", "data_instalacao": "2021-11-17 00:00:00", "cota_terreno": 73.22, "latitude_decimal": -3.053333, "longitude_decimal": -60.04, "utme": 829057, "utmn": 9662058, "bacia": "Rio Amazonas", "municipio": "Manaus", "natureza": "Poço de monitoramento", "nome": "PT-23", "subbacia": "Rios Solimões, Negro, Branco e outros", "situacao": "Poço RIMAS equipado c medidor automático de nível", "uf": "AM", "uso_agua": "Sem uso"}, {"ponto": 1500002065, "UR Responsável": "SUREG-BE", "localizacao": "Mosqueiro /SAAEB", "data_instalacao": "2013-05-08 00:00:00", "cota_terreno": "", "latitude_decimal": -1.158611, "longitude_decimal": -48.471111, "utme": 781438, "utmn": 9871812, "bacia": "Atlantico Sul-N/NE", "municipio": "Belém", "natureza": "Poço tubular", "nome": "SAAEB - MOSQUEIRO", "subbacia": "Rios Gurupi, Turiaçu e outros", "situacao": "Poço RIMAS desativado", "uf": "PA", "uso_agua": "Sem uso"}, {"ponto": 1500002079, "UR Responsável": "SUREG-BE", "localizacao": "COSANPA/5º SETOR/PENTÁGONO", "data_instalacao": "2010-10-14 00:00:00", "cota_terreno": 15.82, "latitude_decimal": -1.427233, "longitude_decimal": -48.455983, "utme": 783092, "utmn": 9842091, "bacia": "Atlantico Sul-N/NE", "municipio": "Belém", "natureza": "Poço tubular", "nome": "COSANPA - 5º SETOR - PENTÁGONO", "subbacia": "Rios Meruu, Acara, Guama e outros", "situacao": "Poço RIMAS equipado c medidor automático de nível", "uf": "PA", "uso_agua": "Sem uso"}, {"ponto": 1500002162, "UR Responsável": "SUREG-BE", "localizacao": "COSANPA/NOVA REPÚBLICA P1", "data_instalacao": "2013-03-13 00:00:00", "cota_terreno": 30.95, "latitude_decimal": -2.466367, "longitude_decimal": -54.722786, "utme": 753231, "utmn": 9727174, "bacia": "Rio Amazonas", "municipio": "Santarém", "natureza": "Poço tubular", "nome": "COSANPA - NOVA REPÚBLICA 1", "subbacia": "Rios Amazonas, Xingu, Iriri e Paru", "situacao": "Poço RIMAS equipado c medidor automático de nível", "uf": "PA", "uso_agua": "Sem uso"}, {"ponto": 1500002164, "UR Responsável": "SUREG-BE", "localizacao": "COSANPA/LIVRAMENTO P1", "data_instalacao": "1998-06-11 00:00:00", "cota_terreno": 31.7, "latitude_decimal": -2.441703, "longitude_decimal": -54.695722, "utme": 756246, "utmn": 9729897, "bacia": "Rio Amazonas", "municipio": "Santarém", "natureza": "Poço tubular", "nome": "RP 021/98", "subbacia": "Rios Amazonas, Xingu, Iriri e Paru", "situacao": "Bombeando", "uf": "PA", "uso_agua": "Abastecimento urbano"}, {"ponto": 1500003032, "UR Responsável": "SUREG-BE", "localizacao": "COSANPA/GUAXININ/PENTÁGONO", "data_instalacao": "2011-12-02 00:00:00", "cota_terreno": 7.53, "latitude_decimal": -0.635903, "longitude_decimal": -47.338367, "utme": 239742, "utmn": 9929655, "bacia": "Atlantico Sul-N/NE", "municipio": "Salinópolis", "natureza": "Poço tubular", "nome": "COSANPA/GUAXININ - PENTÁGONO", "subbacia": "Rios Gurupi, Turiaçu e outros", "situacao": "Poço RIMAS equipado c medidor automático de nível", "uf": "PA", "uso_agua": "Sem uso"}, {"ponto": 1500003822, "UR Responsável": "SUREG-BE", "localizacao": "COSANPA/BARREIRO/FEMAC 1", "data_instalacao": "2011-12-01 00:00:00", "cota_terreno": 20.64, "latitude_decimal": -0.639661, "longitude_decimal": -47.338978, "utme": 239674, "utmn": 9929239, "bacia": "Atlantico Sul-N/NE", "municipio": "Salinópolis", "natureza": "Poço tubular", "nome": "COSANPA/BARREIRO - FEMAC 1", "subbacia": "Rios Gurupi, Turiaçu e outros", "situacao": "Poço RIMAS equipado c medidor automático de nível", "uf": "PA", "uso_agua": "Sem uso"}, {"ponto": 1500003919, "UR Responsável": "SUREG-BE", "localizacao": "MONTE ALEGRE - SURUBEJÚ 2", "data_instalacao": "2012-11-28 00:00:00", "cota_terreno": 22.45, "latitude_decimal": -2.005525, "longitude_decimal": -54.085333, "utme": 824273, "utmn": 9778039, "bacia": "Rio Amazonas", "municipio": "Monte Alegre", "natureza": "Poço tubular", "nome": "MONTE ALEGRE - SURUBEJÚ 2", "subbacia": "Rios Amazonas, Xingu, Iriri e Paru", "situacao": "Poço RIMAS equipado c medidor automático de nível", "uf": "PA", "uso_agua": "Sem uso"}, {"ponto": 1500004658, "UR Responsável": "SUREG-BE", "localizacao": "COSANPA/MOSQUEIRO/MURUBIRA/CORNER", "data_instalacao": "2011-02-25 00:00:00", "cota_terreno": 6.43, "latitude_decimal": -1.124622, "longitude_decimal": -48.443228, "utme": 784545, "utmn": 9875571, "bacia": "Atlantico Sul-N/NE", "municipio": "Belém", "natureza": "Poço tubular", "nome": "COSANPA - MURUBIRA", "subbacia": "Rios Gurupi, Turiaçu e outros", "situacao": "Poço RIMAS desativado", "uf": "PA", "uso_agua": "Sem uso"}, {"ponto": 1500004998, "UR Responsável": "SUREG-BE", "localizacao": "CAPTAÇÃO MILAGRE", "data_instalacao": "", "cota_terreno": 36.14, "latitude_decimal": -1.304589, "longitude_decimal": -47.908036, "utme": 176352, "utmn": 9855616, "bacia": "Atlantico Sul-N/NE", "municipio": "Castanhal", "natureza": "Poço tubular", "nome": "POÇO MILAGRE-02", "subbacia": "Rios Meruu, Acara, Guama e outros", "situacao": "Poço RIMAS desativado", "uf": "PA", "uso_agua": "Sem uso"}, {"ponto": 1500005085, "UR Responsável": "SUREG-BE", "localizacao": "SETOR DE CAPTAÇÃO/SAAEB - 5ª RUA", "data_instalacao": "2011-03-24 00:00:00", "cota_terreno": "", "latitude_decimal": -1.1575, "longitude_decimal": -48.467778, "utme": 781809, "utmn": 9871935, "bacia": "Atlantico Sul-N/NE", "municipio": "Belém", "natureza": "Poço tubular", "nome": "SAAEB - MOSQUEIRO - 5ª RUA", "subbacia": "Rios Gurupi, Turiaçu e outros", "situacao": "Poço RIMAS desativado", "uf": "PA", "uso_agua": "Sem uso"}, {"ponto": 1500005101, "UR Responsável": "SUREG-BE", "localizacao": "VILA DO PATAL", "data_instalacao": "2011-04-14 00:00:00", "cota_terreno": 8.46, "latitude_decimal": -1.083603, "longitude_decimal": -46.636411, "utme": 317916, "utmn": 9880180, "bacia": "Atlantico Sul-N/NE", "municipio": "Augusto Corrêa", "natureza": "Poço de monitoramento", "nome": "P2 - AC - PA/PATAL", "subbacia": "Rios Gurupi, Turiaçu e outros", "situacao": "Poço RIMAS equipado c medidor automático de nível", "uf": "PA", "uso_agua": "Sem uso"}, {"ponto": 1500005110, "UR Responsável": "SUREG-BE", "localizacao": "COMUNIDADE CAMUTÁ", "data_instalacao": "2013-08-28 00:00:00", "cota_terreno": 10.87, "latitude_decimal": -1.052147, "longitude_decimal": -46.744933, "utme": 305835, "utmn": 9883652, "bacia": "Atlantico Sul-N/NE", "municipio": "Bragança", "natureza": "Poço de monitoramento", "nome": "P3 - BRA - CA/CAMUTÁ", "subbacia": "Rios Gurupi, Turiaçu e outros", "situacao": "Poço RIMAS equipado c medidor automático de nível", "uf": "PA", "uso_agua": "Sem uso"}, {"ponto": 1500005167, "UR Responsável": "SUREG-BE", "localizacao": "COSANPA SOURE", "data_instalacao": "2010-11-12 00:00:00", "cota_terreno": 3.9, "latitude_decimal": -0.728872, "longitude_decimal": -48.509431, "utme": 777204, "utmn": 9919361, "bacia": "Rio Amazonas", "municipio": "Soure", "natureza": "Poço tubular", "nome": "COSANPA - SOURE", "subbacia": "Rios Amazonas, Jari, Para e outros", "situacao": "Poço RIMAS equipado c medidor automático de nível", "uf": "PA", "uso_agua": "Sem uso"}, {"ponto": 1500005254, "UR Responsável": "SUREG-BE", "localizacao": "ÁREA SEMATUR - JACUNDÁ", "data_instalacao": "2011-09-13 00:00:00", "cota_terreno": 123.1, "latitude_decimal": -4.487972, "longitude_decimal": -49.1073, "utme": 710007, "utmn": 9503663, "bacia": "Atlantico Sul-N/NE", "municipio": "Jacundá", "natureza": "Poço de monitoramento", "nome": "P4 - JA - SEMATUR/JACUNDÁ", "subbacia": "Rios Meruu, Acara, Guama e outros", "situacao": "Poço RIMAS equipado c medidor automático de nível", "uf": "PA", "uso_agua": "Sem uso"}, {"ponto": 1500005310, "UR Responsável": "SUREG-BE", "localizacao": "AMPARO", "data_instalacao": "2011-10-28 00:00:00", "cota_terreno": 34.01, "latitude_decimal": -2.453911, "longitude_decimal": -54.745619, "utme": 750693, "utmn": 9728556, "bacia": "Rio Amazonas", "municipio": "Santarém", "natureza": "Poço tubular", "nome": "COSANPA AMPARO 1", "subbacia": "Rios Amazonas, Tapajos, Juruena e outros", "situacao": "Poço RIMAS equipado c medidor automático de nível", "uf": "PA", "uso_agua": "Sem uso"}, {"ponto": 1500005376, "UR Responsável": "SUREG-BE", "localizacao": "COSANPA/5º SETOR/FEMAC", "data_instalacao": "2010-10-15 00:00:00", "cota_terreno": 14.96, "latitude_decimal": -1.427283, "longitude_decimal": -48.455897, "utme": 783101, "utmn": 9842085, "bacia": "Atlantico Sul-N/NE", "municipio": "Belém", "natureza": "Poço tubular", "nome": "COSANPA 5º SETOR - FEMAC", "subbacia": "Rios Meruu, Acara, Guama e outros", "situacao": "Poço RIMAS equipado c medidor automático de nível", "uf": "PA", "uso_agua": "Sem uso"}, {"ponto": 1500005542, "UR Responsável": "SUREG-BE", "localizacao": "BAIRRO DO AÇAI", "data_instalacao": "", "cota_terreno": "", "latitude_decimal": -0.620444, "longitude_decimal": -47.358611, "utme": 237486, "utmn": 9931364, "bacia": "Atlantico Sul-N/NE", "municipio": "Salinópolis", "natureza": "Poço tubular", "nome": "POÇO Nº 02", "subbacia": "Rios Gurupi, Turiaçu e outros", "situacao": "Poço RIMAS equipado c medidor automático de nível", "uf": "PA", "uso_agua": "Sem uso"}, {"ponto": 1500005574, "UR Responsável": "SUREG-BE", "localizacao": "SETOR CARANAZAL", "data_instalacao": "2012-04-03 00:00:00", "cota_terreno": 13.53, "latitude_decimal": -2.438972, "longitude_decimal": -54.733631, "utme": 752029, "utmn": 9730206, "bacia": "Rio Amazonas", "municipio": "Santarém", "natureza": "Poço de monitoramento", "nome": "P5 - COS - STM - CA/CARANAZAL", "subbacia": "Rios Amazonas, Tapajos, Juruena e outros", "situacao": "Poço RIMAS equipado c medidor automático de nível", "uf": "PA", "uso_agua": "Sem uso"}, {"ponto": 1500005602, "UR Responsável": "SUREG-BE", "localizacao": "COSANPA/ENGENHO", "data_instalacao": "2012-04-11 00:00:00", "cota_terreno": 21.31, "latitude_decimal": -1.903292, "longitude_decimal": -55.508386, "utme": 665907, "utmn": 9789557, "bacia": "Rio Amazonas", "municipio": "Óbidos", "natureza": "Poço de monitoramento", "nome": "P6 - COS - OB - ENG/ENGENHO", "subbacia": "Rios Amazonas, Tapajos, Juruena e outros", "situacao": "Poço RIMAS equipado c medidor automático de nível", "uf": "PA", "uso_agua": "Sem uso"}, {"ponto": 1500005605, "UR Responsável": "SUREG-BE", "localizacao": "COSANPA/DEFENSORIA PÚBLICA", "data_instalacao": "2012-04-12 00:00:00", "cota_terreno": 43.36, "latitude_decimal": -1.763042, "longitude_decimal": -55.865236, "utme": 626220, "utmn": 9805092, "bacia": "Rio Amazonas", "municipio": "Oriximiná", "natureza": "Poço tubular", "nome": "COSANPA DEFENSORIA", "subbacia": "Rios Amazonas, Trombetas e outros", "situacao": "Poço RIMAS equipado c medidor automático de nível", "uf": "PA", "uso_agua": "Sem uso"}, {"ponto": 1500005620, "UR Responsável": "SUREG-BE", "localizacao": "SETOR DE ABASTECIMENTO DE PONTEIRAS", "data_instalacao": "2012-04-22 00:00:00", "cota_terreno": 11.84, "latitude_decimal": -1.795772, "longitude_decimal": -53.483467, "utme": 223700, "utmn": 9801325, "bacia": "Rio Amazonas", "municipio": "Prainha", "natureza": "Poço de monitoramento", "nome": "P7 - COS - PRA/PRAINHA", "subbacia": "Rios Amazonas, Xingu, Iriri e Paru", "situacao": "Poço RIMAS equipado c medidor automático de nível", "uf": "PA", "uso_agua": "Sem uso"}, {"ponto": 1500005621, "UR Responsável": "SUREG-BE", "localizacao": "PRAÇA 17 DE MARÇO", "data_instalacao": "", "cota_terreno": "", "latitude_decimal": -1.531278, "longitude_decimal": -52.583072, "utme": 323884, "utmn": 9830682, "bacia": "Rio Amazonas", "municipio": "Almeirim", "natureza": "Poço tubular", "nome": "POÇO P8-ALM-PMA", "subbacia": "Rios Amazonas, Xingu, Iriri e Paru", "situacao": "Poço RIMAS equipado c medidor automático de nível", "uf": "PA", "uso_agua": ""}, {"ponto": 1500005622, "UR Responsável": "SUREG-BE", "localizacao": "SAE-CURUÇÁ", "data_instalacao": "2012-05-31 00:00:00", "cota_terreno": 9.02, "latitude_decimal": -0.738142, "longitude_decimal": -47.855917, "utme": 182102, "utmn": 9918311, "bacia": "Atlantico Sul-N/NE", "municipio": "Curuçá", "natureza": "Poço de monitoramento", "nome": "P9 - SAE - CUR/CURUÇÁ", "subbacia": "Rios Gurupi, Turiaçu e outros", "situacao": "Poço RIMAS equipado c medidor automático de nível", "uf": "PA", "uso_agua": "Sem uso"}, {"ponto": 1500005625, "UR Responsável": "SUREG-BE", "localizacao": "SAAEB/SOUZA FRANCO/CPRM", "data_instalacao": "2012-06-20 00:00:00", "cota_terreno": 6.41, "latitude_decimal": -1.30355, "longitude_decimal": -48.477361, "utme": 780726, "utmn": 9855778, "bacia": "Atlantico Sul-N/NE", "municipio": "Belém", "natureza": "Poço tubular", "nome": "SAAEB - ICO - SOUZA FRANCO -CPRM", "subbacia": "Rios Gurupi, Turiaçu e outros", "situacao": "Bombeando", "uf": "PA", "uso_agua": "Sem uso"}, {"ponto": 1500005626, "UR Responsável": "SUREG-BE", "localizacao": "SAAEB/PARACURI-II", "data_instalacao": "2012-06-14 00:00:00", "cota_terreno": 11.17, "latitude_decimal": -1.312478, "longitude_decimal": -48.47225, "utme": 781294, "utmn": 9854789, "bacia": "Atlantico Sul-N/NE", "municipio": "Belém", "natureza": "Poço tubular", "nome": "SAAEB- ICO- PARACURI - II", "subbacia": "Rios Gurupi, Turiaçu e outros", "situacao": "Equipado", "uf": "PA", "uso_agua": "Sem uso"}, {"ponto": 1500005632, "UR Responsável": "SUREG-BE", "localizacao": "CPRM - CIA, DE PESQUISA DE RECURSOS MINERAIS", "data_instalacao": "2012-08-02 00:00:00", "cota_terreno": 16.12, "latitude_decimal": -1.434453, "longitude_decimal": -48.449089, "utme": 783858, "utmn": 9841291, "bacia": "Atlantico Sul-N/NE", "municipio": "Belém", "natureza": "Poço de monitoramento", "nome": "P10_ CPRM_BEL/BELÉM", "subbacia": "Rios Meruu, Acara, Guama e outros", "situacao": "Poço RIMAS equipado c medidor automático de nível", "uf": "PA", "uso_agua": "Sem uso"}, {"ponto": 1500005633, "UR Responsável": "SUREG-BE", "localizacao": "SAAEB/SOUZA FRANCO/FUNASA", "data_instalacao": "", "cota_terreno": 6.03, "latitude_decimal": -1.303817, "longitude_decimal": -48.478178, "utme": 780635, "utmn": 9855748, "bacia": "Atlantico Sul-N/NE", "municipio": "Belém", "natureza": "Poço tubular", "nome": "POÇO SAAEB_ICO_FUNASA", "subbacia": "Rios Gurupi, Turiaçu e outros", "situacao": "", "uf": "PA", "uso_agua": ""}, {"ponto": 1500005635, "UR Responsável": "SUREG-BE", "localizacao": "CRECHE IRMÃ MARIA DAS NEVES", "data_instalacao": "2012-07-12 00:00:00", "cota_terreno": 25.41, "latitude_decimal": -1.430794, "longitude_decimal": -47.908356, "utme": 176333, "utmn": 9841649, "bacia": "Atlantico Sul-N/NE", "municipio": "Inhangapi", "natureza": "Poço de monitoramento", "nome": "P11 - INHAN - CRECHE", "subbacia": "Rios Meruu, Acara, Guama e outros", "situacao": "Poço RIMAS equipado c medidor automático de nível", "uf": "PA", "uso_agua": "Sem uso"}, {"ponto": 1500005722, "UR Responsável": "SUREG-BE", "localizacao": "RUA MAGALHÃES BARATA, Nº 901", "data_instalacao": "2012-08-23 00:00:00", "cota_terreno": 3.49, "latitude_decimal": -0.861756, "longitude_decimal": -48.140106, "utme": 818332, "utmn": 9904630, "bacia": "Atlantico Sul-N/NE", "municipio": "Vigia", "natureza": "Poço de monitoramento", "nome": "P12 - VIGIA - VN", "subbacia": "Rios Gurupi, Turiaçu e outros", "situacao": "Poço RIMAS equipado c medidor automático de nível", "uf": "PA", "uso_agua": "Sem uso"}, {"ponto": 1500005898, "UR Responsável": "SUREG-BE", "localizacao": "COSANPA/APEÚ 1", "data_instalacao": "2012-10-10 00:00:00", "cota_terreno": 18.41, "latitude_decimal": -1.299306, "longitude_decimal": -47.989108, "utme": 167320, "utmn": 9856191, "bacia": "Atlantico Sul-N/NE", "municipio": "Castanhal", "natureza": "Poço tubular", "nome": "COSANPA - APEÚ 1", "subbacia": "Rios Meruu, Acara, Guama e outros", "situacao": "Poço RIMAS equipado c medidor automático de nível", "uf": "PA", "uso_agua": "Sem uso"}, {"ponto": 1500006560, "UR Responsável": "SUREG-BE", "localizacao": "COMUNIDADE EMBORAÍ GRANDE", "data_instalacao": "2013-11-12 00:00:00", "cota_terreno": 60, "latitude_decimal": -1.291394, "longitude_decimal": -46.583319, "utme": 323838, "utmn": 9857207, "bacia": "Atlantico Sul-N/NE", "municipio": "Augusto Corrêa", "natureza": "Poço de monitoramento", "nome": "P1 - AC - EG/EMBORAÍ GRANDE", "subbacia": "Rios Gurupi, Turiaçu e outros", "situacao": "Poço RIMAS equipado c medidor automático de nível", "uf": "PA", "uso_agua": "Sem uso"}, {"ponto": 1500006765, "UR Responsável": "SUREG-BE", "localizacao": "MARA ZARAH/MARAPANIM", "data_instalacao": "", "cota_terreno": "", "latitude_decimal": -0.709425, "longitude_decimal": -47.697775, "utme": 199716, "utmn": 9921500, "bacia": "Atlantico Sul-N/NE", "municipio": "Marapanim", "natureza": "Poço de monitoramento", "nome": "P 13_MARA_ZARAH/MARAPANIM", "subbacia": "Rios Gurupi, Turiaçu e outros", "situacao": "Poço RIMAS equipado c medidor automático de nível", "uf": "PA", "uso_agua": "Sem uso"}, {"ponto": 1500006851, "UR Responsável": "SUREG-BE", "localizacao": "ÓBIDOS/COSANPA/P7", "data_instalacao": "1998-04-29 00:00:00", "cota_terreno": 52.39, "latitude_decimal": -1.914075, "longitude_decimal": -55.516872, "utme": 664962, "utmn": 9788365, "bacia": "Rio Amazonas", "municipio": "Óbidos", "natureza": "Poço tubular", "nome": "ÓBIDOS - COSANPA - CENTRO P7", "subbacia": "Rios Amazonas, Tapajos, Juruena e outros", "situacao": "Poço RIMAS equipado c medidor automático de nível", "uf": "PA", "uso_agua": "Sem uso"}, {"ponto": 1500006923, "UR Responsável": "SUREG-BE", "localizacao": "SISTEMA DE BOMBEAMENTO DA COSANPA", "data_instalacao": "", "cota_terreno": "", "latitude_decimal": -1.009167, "longitude_decimal": -48.960833, "utme": 726923, "utmn": 9888385, "bacia": "Rio Amazonas", "municipio": "Cachoeira do Arari", "natureza": "Poço tubular", "nome": "POÇO CACHOEIRA DO ARARI", "subbacia": "Rios Amazonas, Jari, Para e outros", "situacao": "Poço RIMAS equipado c medidor automático de nível", "uf": "PA", "uso_agua": "Sem uso"}, {"ponto": 1500007415, "UR Responsável": "SUREG-BE", "localizacao": "SANTA CRUZ DO ARARI - MUNICÍPIO SÃO JOSÉ", "data_instalacao": "", "cota_terreno": "", "latitude_decimal": -0.644722, "longitude_decimal": -49.17, "utme": 703656, "utmn": 9928702, "bacia": "Rio Amazonas", "municipio": "Santa Cruz do Arari", "natureza": "Poço tubular", "nome": "POÇO RIMAS", "subbacia": "Rios Amazonas, Jari, Para e outros", "situacao": "Poço RIMAS equipado c medidor automático de nível", "uf": "PA", "uso_agua": "Sem uso"}, {"ponto": 1500012499, "UR Responsável": "SUREG-BE", "localizacao": "COSANPA 5º RUA", "data_instalacao": "2021-02-10 00:00:00", "cota_terreno": "", "latitude_decimal": -1.158203, "longitude_decimal": -48.467583, "utme": 781830, "utmn": 9871858, "bacia": "Atlantico Sul-N/NE", "municipio": "Belém", "natureza": "Poço de monitoramento", "nome": "COSANPA_P-11", "subbacia": "Rios Gurupi, Turiaçu e outros", "situacao": "Poço RIMAS não equipado", "uf": "PA", "uso_agua": "Sem uso"}, {"ponto": 2200000593, "UR Responsável": "RETE", "localizacao": "SEDE MUNICIPAL - PRACA ANGELO BORGES LEAL", "data_instalacao": "2012-09-27 00:00:00", "cota_terreno": 307.24, "latitude_decimal": -7.356739, "longitude_decimal": -41.139831, "utme": 263784, "utmn": 9186250, "bacia": "Atlantico Sul-N/NE", "municipio": "Jaicós", "natureza": "Poço tubular", "nome": "Escritório da AGESPISA", "subbacia": "Rio Parnaiba", "situacao": "Poço RIMAS equipado c medidor automático de nível", "uf": "PI", "uso_agua": "Sem uso"}, {"ponto": 2200017099, "UR Responsável": "RETE", "localizacao": "Assentamento Vale do Gurguéia", "data_instalacao": "2012-11-21 00:00:00", "cota_terreno": 237.5, "latitude_decimal": -8.476388, "longitude_decimal": -43.896944, "utme": 621403, "utmn": 9062857, "bacia": "Atlantico Sul-N/NE", "municipio": "Alvorada do Gurguéia", "natureza": "Poço tubular", "nome": "Assentamento Vale do Gurguéia", "subbacia": "Rio Parnaiba", "situacao": "Poço RIMAS equipado c medidor automático de nível", "uf": "PI", "uso_agua": "Sem uso"}, {"ponto": 2200017170, "UR Responsável": "RETE", "localizacao": "Assentamento Trombetas", "data_instalacao": "2012-11-21 00:00:00", "cota_terreno": 282.8, "latitude_decimal": -8.701666, "longitude_decimal": -44.086111, "utme": 600531, "utmn": 9037994, "bacia": "Atlantico Sul-N/NE", "municipio": "Cristino Castro", "natureza": "Poço tubular", "nome": "Assentamento Trombetas", "subbacia": "Rio Parnaiba", "situacao": "Poço RIMAS equipado c medidor automático de nível", "uf": "PI", "uso_agua": "Sem uso"}, {"ponto": 2200034952, "UR Responsável": "RETE", "localizacao": "RETE - CPRM", "data_instalacao": "", "cota_terreno": 81.81, "latitude_decimal": -5.088056, "longitude_decimal": -42.799444, "utme": 743968, "utmn": 9437185, "bacia": "Atlantico Sul-N/NE", "municipio": "Teresina", "natureza": "Poço tubular", "nome": "RETE", "subbacia": "Rio Parnaiba", "situacao": "Poço RIMAS equipado c medidor automático de nível", "uf": "PI", "uso_agua": "Sem uso"}, {"ponto": 2200045219, "UR Responsável": "RETE", "localizacao": "Sede - Centro de Apoio a Pessoa Idosa", "data_instalacao": "2011-03-29 00:00:00", "cota_terreno": 284.6, "latitude_decimal": -5.511666, "longitude_decimal": -41.310833, "utme": 243974, "utmn": 9390278, "bacia": "Atlantico Sul-N/NE", "municipio": "São Miguel do Tapuio", "natureza": "Poço de monitoramento", "nome": "Centro de Apoio a Pessoa Idosa", "subbacia": "Rio Parnaiba", "situacao": "Poço RIMAS equipado c medidor automático de nível", "uf": "PI", "uso_agua": "Sem uso"}, {"ponto": 2200045220, "UR Responsável": "RETE", "localizacao": "Secretaria de Ação Social", "data_instalacao": "2011-11-25 00:00:00", "cota_terreno": 135.97, "latitude_decimal": -4.252777, "longitude_decimal": -41.273888, "utme": 247598, "utmn": 9529558, "bacia": "Atlantico Sul-N/NE", "municipio": "Domingos Mourão", "natureza": "Poço de monitoramento", "nome": "Secretaria de Ação Social", "subbacia": "Rio Parnaiba", "situacao": "Poço RIMAS equipado c medidor automático de nível", "uf": "PI", "uso_agua": "Sem uso"}, {"ponto": 2200045221, "UR Responsável": "RETE", "localizacao": "Sede - Estádio Municipal", "data_instalacao": "2011-02-24 00:00:00", "cota_terreno": 255.16, "latitude_decimal": -6.996342, "longitude_decimal": -41.135672, "utme": 264285, "utmn": 9226121, "bacia": "Atlantico Sul-N/NE", "municipio": "Francisco Santos", "natureza": "Poço de monitoramento", "nome": "Estádio Municipal", "subbacia": "Rio Parnaiba", "situacao": "Poço RIMAS equipado c medidor automático de nível", "uf": "PI", "uso_agua": "Sem uso"}, {"ponto": 2200045222, "UR Responsável": "RETE", "localizacao": "Ginásio Poliesportivo Gov, Guilherme Melo", "data_instalacao": "2011-07-05 00:00:00", "cota_terreno": 192.92, "latitude_decimal": -7.446231, "longitude_decimal": -41.479278, "utme": 226359, "utmn": 9176154, "bacia": "Atlantico Sul-N/NE", "municipio": "Itainópolis", "natureza": "Poço de monitoramento", "nome": "Ginásio Poliesportivo Gov. Guilherme Melo", "subbacia": "Rio Parnaiba", "situacao": "Poço RIMAS equipado c medidor automático de nível", "uf": "PI", "uso_agua": "Sem uso"}, {"ponto": 2200045223, "UR Responsável": "RETE", "localizacao": "Unidade Escolar Teotonio Ferreira", "data_instalacao": "2011-11-22 00:00:00", "cota_terreno": 150.23, "latitude_decimal": -3.599722, "longitude_decimal": -41.441111, "utme": 228815, "utmn": 9601753, "bacia": "Atlantico Sul-N/NE", "municipio": "Cocal dos Alves", "natureza": "Poço de monitoramento", "nome": "Unidade Escolar Teotonio Ferreira", "subbacia": "Rio Parnaiba", "situacao": "Poço RIMAS equipado c medidor automático de nível", "uf": "PI", "uso_agua": "Sem uso"}, {"ponto": 2200045224, "UR Responsável": "RETE", "localizacao": "Unidade Escolar Nasila de Sousa Pires", "data_instalacao": "2011-03-30 00:00:00", "cota_terreno": 27.62, "latitude_decimal": -3.171666, "longitude_decimal": -41.8625, "utme": 181826, "utmn": 9648991, "bacia": "Atlantico Sul-N/NE", "municipio": "Buriti dos Lopes", "natureza": "Poço de monitoramento", "nome": "Unidade Escolar Nasila de Sousa Pires", "subbacia": "Rio Parnaiba", "situacao": "Poço RIMAS equipado c medidor automático de nível", "uf": "PI", "uso_agua": "Sem uso"}, {"ponto": 2200046783, "UR Responsável": "RETE", "localizacao": "Sede - Secretaria de Obras", "data_instalacao": "2011-10-14 00:00:00", "cota_terreno": 154.93, "latitude_decimal": -4.133611, "longitude_decimal": -41.780278, "utme": 191302, "utmn": 9542562, "bacia": "Atlantico Sul-N/NE", "municipio": "Brasileira", "natureza": "Poço de monitoramento", "nome": "Secretaria de Obras", "subbacia": "Rio Parnaiba", "situacao": "Poço RIMAS equipado c medidor automático de nível", "uf": "PI", "uso_agua": "Sem uso"}, {"ponto": 2200046784, "UR Responsável": "RETE", "localizacao": "Sede - Estádio Geovani Portela", "data_instalacao": "2011-10-12 00:00:00", "cota_terreno": 244.53, "latitude_decimal": -5.320833, "longitude_decimal": -41.5625, "utme": 215984, "utmn": 9411280, "bacia": "Atlantico Sul-N/NE", "municipio": "Castelo do Piauí", "natureza": "Poço de monitoramento", "nome": "Estádio Geovani Portela", "subbacia": "Rio Parnaiba", "situacao": "Poço RIMAS equipado c medidor automático de nível", "uf": "PI", "uso_agua": "Sem uso"}, {"ponto": 2200046785, "UR Responsável": "RETE", "localizacao": "Sede - Escola Municipal Maria Idalina", "data_instalacao": "2011-10-13 00:00:00", "cota_terreno": 166.98, "latitude_decimal": -7.233056, "longitude_decimal": -41.912222, "utme": 178368, "utmn": 9199455, "bacia": "Atlantico Sul-N/NE", "municipio": "Wall Ferraz", "natureza": "Poço de monitoramento", "nome": "Escola Municipal Maria Idalina", "subbacia": "Rio Parnaiba", "situacao": "Poço RIMAS equipado c medidor automático de nível", "uf": "PI", "uso_agua": "Sem uso"}, {"ponto": 2200046786, "UR Responsável": "RETE", "localizacao": "Sede - Escola Pedro P, Bomfim", "data_instalacao": "2011-10-13 00:00:00", "cota_terreno": 448.89, "latitude_decimal": -6.555281, "longitude_decimal": -41.571592, "utme": 215633, "utmn": 9274684, "bacia": "Atlantico Sul-N/NE", "municipio": "Lagoa do Sítio", "natureza": "Poço de monitoramento", "nome": "Escola Pedro P. Bomfim", "subbacia": "Rio Parnaiba", "situacao": "Poço RIMAS equipado c medidor automático de nível", "uf": "PI", "uso_agua": "Sem uso"}, {"ponto": 2200046787, "UR Responsável": "RETE", "localizacao": "Sede - Posto de Saúde Teodoro Oliveira", "data_instalacao": "2011-10-12 00:00:00", "cota_terreno": 227.84, "latitude_decimal": -4.771389, "longitude_decimal": -41.817222, "utme": 187467, "utmn": 9471965, "bacia": "Atlantico Sul-N/NE", "municipio": "Jatobá do Piauí", "natureza": "Poço de monitoramento", "nome": "Posto de Saúde Teodoro Oliveira", "subbacia": "Rio Parnaiba", "situacao": "Poço RIMAS equipado c medidor automático de nível", "uf": "PI", "uso_agua": "Sem uso"}, {"ponto": 2200046856, "UR Responsável": "RETE", "localizacao": "Sede - Unidade Pré-Escolar Paraíso das Crianças", "data_instalacao": "2011-10-12 00:00:00", "cota_terreno": 419.58, "latitude_decimal": -6.831842, "longitude_decimal": -41.747069, "utme": 196376, "utmn": 9243974, "bacia": "Atlantico Sul-N/NE", "municipio": "Ipiranga do Piauí", "natureza": "Poço de monitoramento", "nome": "Unidade Pré-Escolar Paraíso das Crianças", "subbacia": "Rio Parnaiba", "situacao": "Poço RIMAS equipado c medidor automático de nível", "uf": "PI", "uso_agua": "Sem uso"}, {"ponto": 2200046857, "UR Responsável": "RETE", "localizacao": "Unidade Escolar Dr, Pedro Laurentino Pereira Neto", "data_instalacao": "2011-10-11 00:00:00", "cota_terreno": 266.24, "latitude_decimal": -8.066389, "longitude_decimal": -42.287778, "utme": 798945, "utmn": 9107366, "bacia": "Atlantico Sul-N/NE", "municipio": "Pedro Laurentino", "natureza": "Poço de monitoramento", "nome": "Unidade Escolar Dr. Pedro Laurentino", "subbacia": "Rio Parnaiba", "situacao": "Poço RIMAS equipado c medidor automático de nível", "uf": "PI", "uso_agua": "Sem uso"}, {"ponto": 2200046858, "UR Responsável": "RETE", "localizacao": "Escola Agrícola do Caldeirão", "data_instalacao": "2011-10-10 00:00:00", "cota_terreno": 151.62, "latitude_decimal": -6.974375, "longitude_decimal": -42.146739, "utme": 815329, "utmn": 9228130, "bacia": "Atlantico Sul-N/NE", "municipio": "Oeiras", "natureza": "Poço de monitoramento", "nome": "Escola Agrícola do Caldeirão", "subbacia": "Rio Parnaiba", "situacao": "Poço RIMAS equipado c medidor automático de nível", "uf": "PI", "uso_agua": "Sem uso"}, {"ponto": 2200046859, "UR Responsável": "RETE", "localizacao": "Sede-Quadra de Esportes Juraci Moreira de Freitas", "data_instalacao": "2011-10-12 00:00:00", "cota_terreno": 243.41, "latitude_decimal": -7.875561, "longitude_decimal": -41.597272, "utme": 213668, "utmn": 9128570, "bacia": "Atlantico Sul-N/NE", "municipio": "Conceição do Canindé", "natureza": "Poço de monitoramento", "nome": "Quadra de Esportes Juraci Moreira de Freitas", "subbacia": "Rio Parnaiba", "situacao": "Poço RIMAS equipado c medidor automático de nível", "uf": "PI", "uso_agua": "Sem uso"}, {"ponto": 2200051369, "UR Responsável": "RETE", "localizacao": "Sacavem - CAEMA", "data_instalacao": "", "cota_terreno": "", "latitude_decimal": -2.569444, "longitude_decimal": -44.254167, "utme": 582912, "utmn": 9715972, "bacia": "Atlantico Sul-N/NE", "municipio": "São Luís", "natureza": "Poço tubular", "nome": "Pz-01", "subbacia": "Rios Mearim, Itapecuru e outros", "situacao": "Poço RIMAS equipado c medidor automático de nível", "uf": "MA", "uso_agua": ""}, {"ponto": 2200051370, "UR Responsável": "RETE", "localizacao": "Sacavém - Av, dos Franceses", "data_instalacao": "", "cota_terreno": "", "latitude_decimal": -2.561111, "longitude_decimal": -44.249167, "utme": 583468, "utmn": 9716893, "bacia": "Atlantico Sul-N/NE", "municipio": "São Luís", "natureza": "Poço tubular", "nome": "Pz-02", "subbacia": "Rios Mearim, Itapecuru e outros", "situacao": "Poço RIMAS equipado c medidor automático de nível", "uf": "MA", "uso_agua": ""}, {"ponto": 2200051371, "UR Responsável": "RETE", "localizacao": "Paciência II", "data_instalacao": "", "cota_terreno": "", "latitude_decimal": -2.548889, "longitude_decimal": -44.193611, "utme": 589646, "utmn": 9718240, "bacia": "Atlantico Sul-N/NE", "municipio": "São José de Ribamar", "natureza": "Poço tubular", "nome": "Pz - 03", "subbacia": "Rios Mearim, Itapecuru e outros", "situacao": "Poço RIMAS equipado c medidor automático de nível", "uf": "MA", "uso_agua": ""}, {"ponto": 2200051372, "UR Responsável": "RETE", "localizacao": "Rua 9 - Vila Embratel", "data_instalacao": "", "cota_terreno": "", "latitude_decimal": -2.570278, "longitude_decimal": -44.307222, "utme": 577014, "utmn": 9715883, "bacia": "Atlantico Sul-N/NE", "municipio": "São Luís", "natureza": "Poço tubular", "nome": "Pz - 04", "subbacia": "Rios Mearim, Itapecuru e outros", "situacao": "Poço RIMAS equipado c medidor automático de nível", "uf": "MA", "uso_agua": ""}, {"ponto": 2200051433, "UR Responsável": "RETE", "localizacao": "3° BEC", "data_instalacao": "", "cota_terreno": 220, "latitude_decimal": -7.073333, "longitude_decimal": -41.409444, "utme": 233839, "utmn": 9217452, "bacia": "Atlantico Sul-N/NE", "municipio": "Picos", "natureza": "Poço tubular", "nome": "3°BEC - Granja I", "subbacia": "Rio Parnaiba", "situacao": "Poço RIMAS equipado c medidor automático de nível", "uf": "PI", "uso_agua": ""}, {"ponto": 2200060772, "UR Responsável": "RETE", "localizacao": "Fazenda Cruzeiro", "data_instalacao": "", "cota_terreno": "", "latitude_decimal": -5.2656, "longitude_decimal": -42.306533, "utme": 798568, "utmn": 9417332, "bacia": "Atlantico Sul-N/NE", "municipio": "Alto Longá", "natureza": "Poço tubular", "nome": "Fazenda Cruzeiro do Oscar", "subbacia": "Rio Parnaiba", "situacao": "Poço RIMAS equipado c medidor automático de nível", "uf": "PI", "uso_agua": "Outros (lazer,etc.)"}, {"ponto": 2200060773, "UR Responsável": "RETE", "localizacao": "Parque de Vaquejada (Sede)", "data_instalacao": "", "cota_terreno": "", "latitude_decimal": -4.769825, "longitude_decimal": -42.567828, "utme": 769789, "utmn": 9472302, "bacia": "Atlantico Sul-N/NE", "municipio": "José de Freitas", "natureza": "Poço tubular", "nome": "Parque de Vaquejada", "subbacia": "Rio Parnaiba", "situacao": "Poço RIMAS equipado c medidor automático de nível", "uf": "PI", "uso_agua": "Outros (lazer,etc.)"}, {"ponto": 2200060774, "UR Responsável": "RETE", "localizacao": "Assentamento Poço dos Negros", "data_instalacao": "", "cota_terreno": "", "latitude_decimal": -4.915414, "longitude_decimal": -42.358769, "utme": 792932, "utmn": 9456107, "bacia": "Atlantico Sul-N/NE", "municipio": "Altos", "natureza": "Poço tubular", "nome": "Assentamento Poço dos Negros", "subbacia": "Rio Parnaiba", "situacao": "Poço RIMAS equipado c medidor automático de nível", "uf": "PI", "uso_agua": "Outros (lazer,etc.)"}, {"ponto": 2200060775, "UR Responsável": "RETE", "localizacao": "Povoado Uruçus", "data_instalacao": "", "cota_terreno": "", "latitude_decimal": -5.296664, "longitude_decimal": -42.449872, "utme": 782654, "utmn": 9413962, "bacia": "Atlantico Sul-N/NE", "municipio": "Pau D'Arco do Piauí", "natureza": "Poço tubular", "nome": "Povoado Uruçus", "subbacia": "Rio Parnaiba", "situacao": "Poço RIMAS equipado c medidor automático de nível", "uf": "PI", "uso_agua": "Outros (lazer,etc.)"}, {"ponto": 2200060776, "UR Responsável": "RETE", "localizacao": "Unidade Escolar Luiz de Aquino Sousa", "data_instalacao": "", "cota_terreno": "", "latitude_decimal": -4.670864, "longitude_decimal": -42.827497, "utme": 741005, "utmn": 9483346, "bacia": "Atlantico Sul-N/NE", "municipio": "União", "natureza": "Poço tubular", "nome": "União", "subbacia": "Rio Parnaiba", "situacao": "Poço RIMAS equipado c medidor automático de nível", "uf": "PI", "uso_agua": "Outros (lazer,etc.)"}, {"ponto": 2200060777, "UR Responsável": "RETE", "localizacao": "Prefeitura Municipal de Monsenhor Gil", "data_instalacao": "2024-05-22 00:00:00", "cota_terreno": "", "latitude_decimal": -5.561908, "longitude_decimal": -42.610489, "utme": 764725, "utmn": 9384687, "bacia": "Atlantico Sul-N/NE", "municipio": "Monsenhor Gil", "natureza": "Poço tubular", "nome": "Monsenhor Gil", "subbacia": "Rio Parnaiba", "situacao": "Poço RIMAS equipado c medidor automático de nível", "uf": "PI", "uso_agua": "Outros (lazer,etc.)"}, {"ponto": 2200060778, "UR Responsável": "RETE", "localizacao": "Ginásio Poli Esportivo", "data_instalacao": "2024-03-15 00:00:00", "cota_terreno": "", "latitude_decimal": -5.449939, "longitude_decimal": -42.371322, "utme": 791294, "utmn": 9396965, "bacia": "Atlantico Sul-N/NE", "municipio": "Beneditinos", "natureza": "Poço tubular", "nome": "Beneditinos", "subbacia": "Rio Parnaiba", "situacao": "Poço RIMAS equipado c medidor automático de nível", "uf": "PI", "uso_agua": "Sem uso"}, {"ponto": 2200060779, "UR Responsável": "RETE", "localizacao": "Unidade Escolar Santo Elias", "data_instalacao": "2024-03-22 00:00:00", "cota_terreno": "", "latitude_decimal": -5.266442, "longitude_decimal": -42.619667, "utme": 763836, "utmn": 9417380, "bacia": "Atlantico Sul-N/NE", "municipio": "Demerval Lobão", "natureza": "Poço tubular", "nome": "Demerval Lobão", "subbacia": "Rio Parnaiba", "situacao": "Poço RIMAS equipado c medidor automático de nível", "uf": "PI", "uso_agua": "Outros (lazer,etc.)"}, {"ponto": 2300020827, "UR Responsável": "REFO", "localizacao": "Santana III", "data_instalacao": "2011-08-27 00:00:00", "cota_terreno": 402.89, "latitude_decimal": -7.319722, "longitude_decimal": -39.2575, "utme": 471565, "utmn": 9190905, "bacia": "Atlantico Sul-N/NE", "municipio": "Barbalha", "natureza": "Poço de monitoramento", "nome": "Santana III", "subbacia": "Rio Jaguaribe", "situacao": "Poço RIMAS equipado c medidor automático de nível", "uf": "CE", "uso_agua": "Sem uso"}, {"ponto": 2300022129, "UR Responsável": "REFO", "localizacao": "Jenipapeiro / Igreja", "data_instalacao": "2011-08-31 00:00:00", "cota_terreno": 399.67, "latitude_decimal": -7.496389, "longitude_decimal": -38.911944, "utme": 509715, "utmn": 9171369, "bacia": "Atlantico Sul-N/NE", "municipio": "Brejo Santo", "natureza": "Poço de monitoramento", "nome": "Jenipapeiro", "subbacia": "Rio Jaguaribe", "situacao": "Poço RIMAS equipado c medidor automático de nível", "uf": "CE", "uso_agua": "Sem uso"}, {"ponto": 2300022135, "UR Responsável": "REFO", "localizacao": "Água Vermelha", "data_instalacao": "2011-08-30 00:00:00", "cota_terreno": 362.34, "latitude_decimal": -7.408056, "longitude_decimal": -38.932222, "utme": 507469, "utmn": 9181127, "bacia": "Atlantico Sul-N/NE", "municipio": "Milagres", "natureza": "Poço de monitoramento", "nome": "Água Vermelha", "subbacia": "Rio Jaguaribe", "situacao": "Poço RIMAS equipado c medidor automático de nível", "uf": "CE", "uso_agua": "Sem uso"}, {"ponto": 2300022154, "UR Responsável": "REFO", "localizacao": "Jerimum / SISAR", "data_instalacao": "2011-08-27 00:00:00", "cota_terreno": 360.4, "latitude_decimal": -7.269167, "longitude_decimal": -39.175, "utme": 480687, "utmn": 9196480, "bacia": "Atlantico Sul-N/NE", "municipio": "Missão Velha", "natureza": "Poço de monitoramento", "nome": "Sítio Jerimum", "subbacia": "Rio Jaguaribe", "situacao": "Poço RIMAS equipado c medidor automático de nível", "uf": "CE", "uso_agua": "Sem uso"}, {"ponto": 2300022506, "UR Responsável": "REFO", "localizacao": "Boqueirão", "data_instalacao": "2012-11-20 00:00:00", "cota_terreno": 458.29, "latitude_decimal": -7.591667, "longitude_decimal": -39.025, "utme": 497239, "utmn": 9160856, "bacia": "Atlantico Sul-N/NE", "municipio": "Brejo Santo", "natureza": "Poço de monitoramento", "nome": "Boqueirão", "subbacia": "Rio Jaguaribe", "situacao": "Poço RIMAS equipado c medidor automático de nível", "uf": "CE", "uso_agua": "Sem uso"}, {"ponto": 2300022592, "UR Responsável": "REFO", "localizacao": "UFCA", "data_instalacao": "2011-08-29 00:00:00", "cota_terreno": 466.02, "latitude_decimal": -7.257778, "longitude_decimal": -39.303056, "utme": 466539, "utmn": 9197726, "bacia": "Atlantico Sul-N/NE", "municipio": "Juazeiro do Norte", "natureza": "Poço de monitoramento", "nome": "UFCA", "subbacia": "Rio Jaguaribe", "situacao": "Poço RIMAS equipado c medidor automático de nível", "uf": "CE", "uso_agua": "Sem uso"}, {"ponto": 2300022593, "UR Responsável": "REFO", "localizacao": "Carrancudo", "data_instalacao": "2011-08-29 00:00:00", "cota_terreno": 455.15, "latitude_decimal": -7.371667, "longitude_decimal": -39.129444, "utme": 485717, "utmn": 9185162, "bacia": "Atlantico Sul-N/NE", "municipio": "Missão Velha", "natureza": "Poço de monitoramento", "nome": "Carrancudo", "subbacia": "Rio Jaguaribe", "situacao": "Poço RIMAS equipado c medidor automático de nível", "uf": "CE", "uso_agua": "Sem uso"}, {"ponto": 2300022598, "UR Responsável": "REFO", "localizacao": "Melo", "data_instalacao": "2011-08-30 00:00:00", "cota_terreno": 451.91, "latitude_decimal": -7.289722, "longitude_decimal": -39.051667, "utme": 494293, "utmn": 9194213, "bacia": "Atlantico Sul-N/NE", "municipio": "Milagres", "natureza": "Poço de monitoramento", "nome": "Melo", "subbacia": "Rio Jaguaribe", "situacao": "Poço RIMAS equipado c medidor automático de nível", "uf": "CE", "uso_agua": "Sem uso"}, {"ponto": 2300022599, "UR Responsável": "REFO", "localizacao": "Canta Galo", "data_instalacao": "2011-08-26 00:00:00", "cota_terreno": 450.71, "latitude_decimal": -7.354167, "longitude_decimal": -39.171111, "utme": 481130, "utmn": 9187107, "bacia": "Atlantico Sul-N/NE", "municipio": "Missão Velha", "natureza": "Poço de monitoramento", "nome": "Sítio Canta Galo", "subbacia": "Rio Jaguaribe", "situacao": "Poço RIMAS equipado c medidor automático de nível", "uf": "CE", "uso_agua": "Sem uso"}, {"ponto": 2300022600, "UR Responsável": "REFO", "localizacao": "Cajueiro", "data_instalacao": "2011-08-30 00:00:00", "cota_terreno": 373.13, "latitude_decimal": -7.347778, "longitude_decimal": -38.985, "utme": 501654, "utmn": 9187803, "bacia": "Atlantico Sul-N/NE", "municipio": "Abaiara", "natureza": "Poço de monitoramento", "nome": "Sítio Cajueiro", "subbacia": "Rio Jaguaribe", "situacao": "Poço RIMAS equipado c medidor automático de nível", "uf": "CE", "uso_agua": "Sem uso"}, {"ponto": 2300022706, "UR Responsável": "REFO", "localizacao": "Centro do Idoso", "data_instalacao": "2011-10-29 00:00:00", "cota_terreno": 22.34, "latitude_decimal": -5.069444, "longitude_decimal": -37.987222, "utme": 612265, "utmn": 9439580, "bacia": "Atlantico Sul-N/NE", "municipio": "Quixeré", "natureza": "Poço de monitoramento", "nome": "Sede - Centro do Idoso", "subbacia": "Rio Jaguaribe", "situacao": "Poço RIMAS equipado c medidor automático de nível", "uf": "CE", "uso_agua": "Sem uso"}, {"ponto": 2300022707, "UR Responsável": "REFO", "localizacao": "Campos Velhos", "data_instalacao": "2011-07-22 00:00:00", "cota_terreno": 11.48, "latitude_decimal": -5.521944, "longitude_decimal": -38.008889, "utme": 609796, "utmn": 9389547, "bacia": "Atlantico Sul-N/NE", "municipio": "Tabuleiro do Norte", "natureza": "Poço de monitoramento", "nome": "Campos Velhos", "subbacia": "Rio Jaguaribe", "situacao": "Poço RIMAS equipado c medidor automático de nível", "uf": "CE", "uso_agua": "Sem uso"}, {"ponto": 2300022889, "UR Responsável": "REFO", "localizacao": "Bananeiras", "data_instalacao": "2012-11-09 00:00:00", "cota_terreno": 586.2, "latitude_decimal": -7.331111, "longitude_decimal": -38.593333, "utme": 544884, "utmn": 9189632, "bacia": "Atlantico Sul-N/NE", "municipio": "Mauriti", "natureza": "Poço de monitoramento", "nome": "Sítio Bananeiras", "subbacia": "Rio Jaguaribe", "situacao": "Poço RIMAS equipado c medidor automático de nível", "uf": "CE", "uso_agua": "Sem uso"}, {"ponto": 2300022891, "UR Responsável": "REFO", "localizacao": "São Sebastião", "data_instalacao": "2012-08-31 00:00:00", "cota_terreno": 417.17, "latitude_decimal": -7.286667, "longitude_decimal": -38.8175, "utme": 520139, "utmn": 9194555, "bacia": "Atlantico Sul-N/NE", "municipio": "Mauriti", "natureza": "Poço de monitoramento", "nome": "Sítio São Sebastião", "subbacia": "Rio Jaguaribe", "situacao": "Poço RIMAS equipado c medidor automático de nível", "uf": "CE", "uso_agua": "Sem uso"}, {"ponto": 2300022892, "UR Responsável": "REFO", "localizacao": "Deserto dos Pebas", "data_instalacao": "2012-08-31 00:00:00", "cota_terreno": 505.62, "latitude_decimal": -7.291944, "longitude_decimal": -38.717222, "utme": 531228, "utmn": 9193976, "bacia": "Atlantico Sul-N/NE", "municipio": "Mauriti", "natureza": "Poço de monitoramento", "nome": "Sítio Deserto dos Pebas", "subbacia": "Rio Jaguaribe", "situacao": "Poço RIMAS equipado c medidor automático de nível", "uf": "CE", "uso_agua": "Sem uso"}, {"ponto": 2300022893, "UR Responsável": "REFO", "localizacao": "Jequi", "data_instalacao": "2011-08-29 00:00:00", "cota_terreno": 395.04, "latitude_decimal": -7.491111, "longitude_decimal": -38.802222, "utme": 521814, "utmn": 9171957, "bacia": "Atlantico Sul-N/NE", "municipio": "Mauriti", "natureza": "Poço de monitoramento", "nome": "Sítio Jequi", "subbacia": "Rio Jaguaribe", "situacao": "Poço RIMAS equipado c medidor automático de nível", "uf": "CE", "uso_agua": "Sem uso"}, {"ponto": 2300022894, "UR Responsável": "REFO", "localizacao": "Serrote", "data_instalacao": "2011-08-29 00:00:00", "cota_terreno": 378.59, "latitude_decimal": -7.292778, "longitude_decimal": -38.948333, "utme": 505692, "utmn": 9193874, "bacia": "Atlantico Sul-N/NE", "municipio": "Milagres", "natureza": "Poço de monitoramento", "nome": "Sítio Serrote", "subbacia": "Rio Jaguaribe", "situacao": "Poço RIMAS equipado c medidor automático de nível", "uf": "CE", "uso_agua": "Sem uso"}, {"ponto": 2300022895, "UR Responsável": "REFO", "localizacao": "Queimadas", "data_instalacao": "2012-11-21 00:00:00", "cota_terreno": 398, "latitude_decimal": -7.391111, "longitude_decimal": -39.015278, "utme": 498326, "utmn": 9183011, "bacia": "Atlantico Sul-N/NE", "municipio": "Abaiara", "natureza": "Poço de monitoramento", "nome": "Sítio Queimadas", "subbacia": "Rio Jaguaribe", "situacao": "Poço RIMAS equipado c medidor automático de nível", "uf": "CE", "uso_agua": "Sem uso"}, {"ponto": 2300022896, "UR Responsável": "REFO", "localizacao": "Lagoa da Vaca", "data_instalacao": "2012-08-30 00:00:00", "cota_terreno": 383.4, "latitude_decimal": -7.494722, "longitude_decimal": -38.861944, "utme": 515217, "utmn": 9171542, "bacia": "Atlantico Sul-N/NE", "municipio": "Brejo Santo", "natureza": "Poço de monitoramento", "nome": "Sítio Lagoa da Vaca", "subbacia": "Rio Jaguaribe", "situacao": "Poço RIMAS equipado c medidor automático de nível", "uf": "CE", "uso_agua": "Sem uso"}, {"ponto": 2300022906, "UR Responsável": "REFO", "localizacao": "Escola / Muquem", "data_instalacao": "2012-08-28 00:00:00", "cota_terreno": 461.84, "latitude_decimal": -7.27, "longitude_decimal": -39.379444, "utme": 458113, "utmn": 9196381, "bacia": "Atlantico Sul-N/NE", "municipio": "Crato", "natureza": "Poço de monitoramento", "nome": "Baixio do Muquem (Escola)", "subbacia": "Rio Jaguaribe", "situacao": "Poço RIMAS equipado c medidor automático de nível", "uf": "CE", "uso_agua": "Sem uso"}, {"ponto": 2300022907, "UR Responsável": "REFO", "localizacao": "São Bento", "data_instalacao": "2012-08-28 00:00:00", "cota_terreno": 405.87, "latitude_decimal": -7.206666, "longitude_decimal": -39.399722, "utme": 455876, "utmn": 9203372, "bacia": "Atlantico Sul-N/NE", "municipio": "Crato", "natureza": "Poço de monitoramento", "nome": "Sítio São Bento", "subbacia": "Rio Jaguaribe", "situacao": "Poço RIMAS equipado c medidor automático de nível", "uf": "CE", "uso_agua": "Sem uso"}, {"ponto": 2300022908, "UR Responsável": "REFO", "localizacao": "EMBRAPA", "data_instalacao": "2012-08-30 00:00:00", "cota_terreno": 394.1, "latitude_decimal": -7.295833, "longitude_decimal": -39.270278, "utme": 470166, "utmn": 9193523, "bacia": "Atlantico Sul-N/NE", "municipio": "Barbalha", "natureza": "Poço de monitoramento", "nome": "Sítio Buriti (EMBRAPA)", "subbacia": "Rio Jaguaribe", "situacao": "Poço RIMAS equipado c medidor automático de nível", "uf": "CE", "uso_agua": "Sem uso"}, {"ponto": 2300022909, "UR Responsável": "REFO", "localizacao": "Arraial de Cima", "data_instalacao": "2012-08-29 00:00:00", "cota_terreno": 348.7, "latitude_decimal": -7.218611, "longitude_decimal": -39.203333, "utme": 477543, "utmn": 9202089, "bacia": "Atlantico Sul-N/NE", "municipio": "Missão Velha", "natureza": "Poço de monitoramento", "nome": "Sítio Arraial de Cima", "subbacia": "Rio Jaguaribe", "situacao": "Poço RIMAS equipado c medidor automático de nível", "uf": "CE", "uso_agua": "Sem uso"}, {"ponto": 2300022949, "UR Responsável": "REFO", "localizacao": "Açude do Coelho", "data_instalacao": "2012-07-25 00:00:00", "cota_terreno": 32.4, "latitude_decimal": -4.900833, "longitude_decimal": -37.706667, "utme": 643408, "utmn": 9458143, "bacia": "Atlantico Sul-N/NE", "municipio": "Jaguaruana", "natureza": "Poço de monitoramento", "nome": "Sítio Açude do Coelho", "subbacia": "Rio Jaguaribe", "situacao": "Poço RIMAS equipado c medidor automático de nível", "uf": "CE", "uso_agua": "Sem uso"}, {"ponto": 2300039718, "UR Responsável": "REFO", "localizacao": "Ginásio Vicente Antônio Neto (Logradouro)", "data_instalacao": "2023-05-09 00:00:00", "cota_terreno": "", "latitude_decimal": -7.578611, "longitude_decimal": -39.127778, "utme": 485920, "utmn": 9162271, "bacia": "Atlantico Sul-N/NE", "municipio": "Porteiras", "natureza": "Poço de monitoramento", "nome": "PT.03 - LOC01", "subbacia": "Rio Jaguaribe", "situacao": "Poço RIMAS equipado c medidor automático de nível", "uf": "CE", "uso_agua": "Sem uso"}, {"ponto": 2300039719, "UR Responsável": "REFO", "localizacao": "Areninha Antônio Rodrigues Beserra de Morais (Bair", "data_instalacao": "2023-05-16 00:00:00", "cota_terreno": "", "latitude_decimal": -7.535, "longitude_decimal": -39.11, "utme": 487867, "utmn": 9167113, "bacia": "Atlantico Sul-N/NE", "municipio": "Porteiras", "natureza": "Poço de monitoramento", "nome": "PT.02 – LOC16", "subbacia": "Rio Jaguaribe", "situacao": "Poço RIMAS equipado c medidor automático de nível", "uf": "CE", "uso_agua": "Sem uso"}, {"ponto": 2300039720, "UR Responsável": "REFO", "localizacao": "Sítio Abreus I - Aterro", "data_instalacao": "2023-05-12 00:00:00", "cota_terreno": "", "latitude_decimal": -7.545833, "longitude_decimal": -39.074167, "utme": 491811, "utmn": 9165921, "bacia": "Atlantico Sul-N/NE", "municipio": "Porteiras", "natureza": "Poço de monitoramento", "nome": "PT.01 – LOC13", "subbacia": "Rio Jaguaribe", "situacao": "Poço RIMAS equipado c medidor automático de nível", "uf": "CE", "uso_agua": "Sem uso"}, {"ponto": 2300039721, "UR Responsável": "REFO", "localizacao": "Carnaúba - Escola José Rodrigues Bezerra", "data_instalacao": "2023-05-11 00:00:00", "cota_terreno": "", "latitude_decimal": -7.346667, "longitude_decimal": -38.873056, "utme": 514019, "utmn": 9187927, "bacia": "Atlantico Sul-N/NE", "municipio": "Milagres", "natureza": "Poço de monitoramento", "nome": "PT.05 – LOC05", "subbacia": "Rio Jaguaribe", "situacao": "Poço RIMAS equipado c medidor automático de nível", "uf": "CE", "uso_agua": "Sem uso"}, {"ponto": 2300039722, "UR Responsável": "REFO", "localizacao": "Escola Brasil", "data_instalacao": "2023-05-30 00:00:00", "cota_terreno": "", "latitude_decimal": -7.313333, "longitude_decimal": -39.345833, "utme": 461833, "utmn": 9191594, "bacia": "Atlantico Sul-N/NE", "municipio": "Barbalha", "natureza": "Poço de monitoramento", "nome": "PT.06 – LOC09", "subbacia": "Rio Jaguaribe", "situacao": "Poço RIMAS equipado c medidor automático de nível", "uf": "CE", "uso_agua": "Sem uso"}, {"ponto": 2300039724, "UR Responsável": "REFO", "localizacao": "Igreja Católica na Vila Carité Rua Benjamin de M", "data_instalacao": "2023-04-18 00:00:00", "cota_terreno": "", "latitude_decimal": -7.198889, "longitude_decimal": -39.296389, "utme": 467292, "utmn": 9204261, "bacia": "Atlantico Sul-N/NE", "municipio": "Juazeiro do Norte", "natureza": "Poço de monitoramento", "nome": "PT.07 – LOC07", "subbacia": "Rio Jaguaribe", "situacao": "Poço RIMAS equipado c medidor automático de nível", "uf": "CE", "uso_agua": "Sem uso"}, {"ponto": 2300042181, "UR Responsável": "REFO", "localizacao": "Riacho Seco", "data_instalacao": "", "cota_terreno": "", "latitude_decimal": -7.387304, "longitude_decimal": -39.117101, "utme": 487077, "utmn": 9183434, "bacia": "Atlantico Sul-N/NE", "municipio": "Missão Velha", "natureza": "Poço de monitoramento", "nome": "SRH-01-CE", "subbacia": "Rio Jaguaribe", "situacao": "Equipado", "uf": "CE", "uso_agua": ""}, {"ponto": 2300042182, "UR Responsável": "REFO", "localizacao": "Baixio do Boi", "data_instalacao": "", "cota_terreno": "", "latitude_decimal": -7.503086, "longitude_decimal": -39.031406, "utme": 496535, "utmn": 9170636, "bacia": "Atlantico Sul-N/NE", "municipio": "Brejo Santo", "natureza": "Poço de monitoramento", "nome": "SRH-02-CE", "subbacia": "Rio Jaguaribe", "situacao": "Equipado", "uf": "CE", "uso_agua": ""}, {"ponto": 2300043444, "UR Responsável": "REFO", "localizacao": "Sítio Lagoinha", "data_instalacao": "", "cota_terreno": "", "latitude_decimal": -5.312001, "longitude_decimal": -38.131921, "utme": 596187, "utmn": 9412780, "bacia": "Atlantico Sul-N/NE", "municipio": "Tabuleiro do Norte", "natureza": "Poço de monitoramento", "nome": "Sítio Lagoinha", "subbacia": "Rio Jaguaribe", "situacao": "Bombeando", "uf": "CE", "uso_agua": ""}, {"ponto": 2300043445, "UR Responsável": "REFO", "localizacao": "Barra do Feijão", "data_instalacao": "", "cota_terreno": "", "latitude_decimal": -5.415492, "longitude_decimal": -38.09606, "utme": 600144, "utmn": 9401333, "bacia": "Atlantico Sul-N/NE", "municipio": "Tabuleiro do Norte", "natureza": "Poço de monitoramento", "nome": "Barra do Feijão", "subbacia": "Rio Jaguaribe", "situacao": "Poço RIMAS equipado c medidor automático de nível", "uf": "CE", "uso_agua": ""}, {"ponto": 2300043446, "UR Responsável": "REFO", "localizacao": "Barro Vermelho", "data_instalacao": "", "cota_terreno": "", "latitude_decimal": -4.960373, "longitude_decimal": -37.885007, "utme": 623617, "utmn": 9451612, "bacia": "Atlantico Sul-N/NE", "municipio": "Russas", "natureza": "Poço de monitoramento", "nome": "Barro Vermelho", "subbacia": "Rio Jaguaribe", "situacao": "Bombeando", "uf": "CE", "uso_agua": ""}, {"ponto": 2300043447, "UR Responsável": "REFO", "localizacao": "Sítio Caraúbas", "data_instalacao": "", "cota_terreno": "", "latitude_decimal": -3.54842, "longitude_decimal": -38.875503, "utme": 513827, "utmn": 9607787, "bacia": "Atlantico Sul-N/NE", "municipio": "São Gonçalo do Amarante", "natureza": "Poço de monitoramento", "nome": "Sítio Caraúbas", "subbacia": "Rios Acarau, Piranji e outros", "situacao": "Bombeando", "uf": "CE", "uso_agua": ""}, {"ponto": 2300043448, "UR Responsável": "REFO", "localizacao": "Sabiaguaba", "data_instalacao": "", "cota_terreno": "", "latitude_decimal": -3.129499, "longitude_decimal": -39.59737, "utme": 433625, "utmn": 9654074, "bacia": "Atlantico Sul-N/NE", "municipio": "Amontada", "natureza": "Poço de monitoramento", "nome": "Sabiaguaba", "subbacia": "Rios Acarau, Piranji e outros", "situacao": "Poço RIMAS equipado c medidor automático de nível", "uf": "CE", "uso_agua": ""}, {"ponto": 2300043449, "UR Responsável": "REFO", "localizacao": "Escola São Paulo", "data_instalacao": "", "cota_terreno": "", "latitude_decimal": -2.836148, "longitude_decimal": -40.412927, "utme": 342952, "utmn": 9686422, "bacia": "Atlantico Sul-N/NE", "municipio": "Cruz", "natureza": "Poço de monitoramento", "nome": "Escola São Paulo", "subbacia": "Rios Acarau, Piranji e outros", "situacao": "Bombeando", "uf": "CE", "uso_agua": ""}, {"ponto": 2600008444, "UR Responsável": "SUREG-RE", "localizacao": "PRAIA FORMOSA", "data_instalacao": "2011-11-17 00:00:00", "cota_terreno": 3.1, "latitude_decimal": -6.971667, "longitude_decimal": -34.8325, "utme": 297560, "utmn": 9228985, "bacia": "Atlantico Sul-N/NE", "municipio": "Cabedelo", "natureza": "Poço tubular", "nome": "CGP-06-PB", "subbacia": "Rios Paraiba, Potenji e outros", "situacao": "Poço RIMAS equipado c medidor automático de nível", "uf": "PB", "uso_agua": "Sem uso"}, {"ponto": 2600019994, "UR Responsável": "SUREG-RE", "localizacao": "SÍTIO AJUNTADOR", "data_instalacao": "2012-10-09 00:00:00", "cota_terreno": 436.39, "latitude_decimal": -8.106667, "longitude_decimal": -38.707222, "utme": 532259, "utmn": 9103904, "bacia": "Rio São Francisco", "municipio": "Mirandiba", "natureza": "Poço de monitoramento", "nome": "SRI-09-PE", "subbacia": "Rios São Francisco, Pajeu e outros", "situacao": "Poço RIMAS equipado c medidor automático de nível", "uf": "PE", "uso_agua": "Sem uso"}, {"ponto": 2600039599, "UR Responsável": "SUREG-RE", "localizacao": "São Sebastião dos Torquatos", "data_instalacao": "2011-06-18 00:00:00", "cota_terreno": 39.81, "latitude_decimal": -5.425, "longitude_decimal": -36.530556, "utme": 773654, "utmn": 9399782, "bacia": "Atlantico Sul-N/NE", "municipio": "Afonso Bezerra", "natureza": "Poço de monitoramento", "nome": "SRI-01-RN", "subbacia": "Rios Paraiba, Potenji e outros", "situacao": "Poço RIMAS equipado c medidor automático de nível", "uf": "RN", "uso_agua": "Sem uso"}, {"ponto": 2600039600, "UR Responsável": "SUREG-RE", "localizacao": "Assentamento Esperança", "data_instalacao": "2011-06-17 00:00:00", "cota_terreno": 63.51, "latitude_decimal": -5.660556, "longitude_decimal": -37.285278, "utme": 689923, "utmn": 9374028, "bacia": "Atlantico Sul-N/NE", "municipio": "Upanema", "natureza": "Poço de monitoramento", "nome": "SRI-02-RN", "subbacia": "Rios Apodi, Piranhas e outros", "situacao": "Poço RIMAS equipado c medidor automático de nível", "uf": "RN", "uso_agua": "Sem uso"}, {"ponto": 2600039601, "UR Responsável": "SUREG-RE", "localizacao": "Fazenda Olho D'Água do Mato", "data_instalacao": "2011-07-21 00:00:00", "cota_terreno": 51.65, "latitude_decimal": -5.559444, "longitude_decimal": -37.055278, "utme": 715422, "utmn": 9385129, "bacia": "Atlantico Sul-N/NE", "municipio": "Açu", "natureza": "Poço de monitoramento", "nome": "SRI-03-RN", "subbacia": "Rios Apodi, Piranhas e outros", "situacao": "Poço RIMAS equipado c medidor automático de nível", "uf": "RN", "uso_agua": "Sem uso"}, {"ponto": 2600039602, "UR Responsável": "SUREG-RE", "localizacao": "Antiga Associação do DNPM", "data_instalacao": "2010-10-05 00:00:00", "cota_terreno": 12.29, "latitude_decimal": -8.025556, "longitude_decimal": -34.916944, "utme": 288739, "utmn": 9112381, "bacia": "Atlantico Sul-N/NE", "municipio": "Recife", "natureza": "Poço de monitoramento", "nome": "SRI-01-PE", "subbacia": "Rios Paraiba, Potenji e outros", "situacao": "Poço RIMAS equipado c medidor automático de nível", "uf": "PE", "uso_agua": "Sem uso"}, {"ponto": 2600039603, "UR Responsável": "SUREG-RE", "localizacao": "Departamento de Tecnologia Rural - UFRPE", "data_instalacao": "2010-10-06 00:00:00", "cota_terreno": 6.09, "latitude_decimal": -8.018056, "longitude_decimal": -34.946944, "utme": 285410, "utmn": 9113187, "bacia": "Atlantico Sul-N/NE", "municipio": "Recife", "natureza": "Poço de monitoramento", "nome": "SRI-02-PE", "subbacia": "Rios Paraiba, Potenji e outros", "situacao": "Poço RIMAS equipado c medidor automático de nível", "uf": "PE", "uso_agua": "Sem uso"}, {"ponto": 2600039604, "UR Responsável": "SUREG-RE", "localizacao": "Centro de Treinamento do Clube Náutico Capibaribe", "data_instalacao": "2010-10-06 00:00:00", "cota_terreno": 27.74, "latitude_decimal": -7.986389, "longitude_decimal": -34.936944, "utme": 286517, "utmn": 9116694, "bacia": "Atlantico Sul-N/NE", "municipio": "Recife", "natureza": "Poço de monitoramento", "nome": "SRI-03-PE", "subbacia": "Rios Paraiba, Potenji e outros", "situacao": "Poço RIMAS equipado c medidor automático de nível", "uf": "PE", "uso_agua": "Sem uso"}, {"ponto": 2600039605, "UR Responsável": "SUREG-RE", "localizacao": "Sítio Queimada Grande", "data_instalacao": "2010-10-15 00:00:00", "cota_terreno": 409.56, "latitude_decimal": -8.875278, "longitude_decimal": -37.721944, "utme": 640541, "utmn": 9018680, "bacia": "Rio São Francisco", "municipio": "Inajá", "natureza": "Poço de monitoramento", "nome": "SRI-04-PE", "subbacia": "Rios São Francisco, Moxoto e outros", "situacao": "Poço RIMAS equipado c medidor automático de nível", "uf": "PE", "uso_agua": "Sem uso"}, {"ponto": 2600039622, "UR Responsável": "SUREG-RE", "localizacao": "Vila Agricola Amigos do Bem", "data_instalacao": "2010-11-05 00:00:00", "cota_terreno": 783.57, "latitude_decimal": -8.609167, "longitude_decimal": -37.243889, "utme": 693252, "utmn": 9047901, "bacia": "Rio São Francisco", "municipio": "Buíque", "natureza": "Poço de monitoramento", "nome": "SRI-05-PE", "subbacia": "Rios São Francisco, Moxoto e outros", "situacao": "Poço RIMAS equipado c medidor automático de nível", "uf": "PE", "uso_agua": "Sem uso"}, {"ponto": 2600041030, "UR Responsável": "SUREG-RE", "localizacao": "Engenho UBU", "data_instalacao": "2011-11-30 00:00:00", "cota_terreno": 56.13, "latitude_decimal": -7.701111, "longitude_decimal": -34.92, "utme": 288235, "utmn": 9148273, "bacia": "Atlantico Sul-N/NE", "municipio": "Itapissuma", "natureza": "Poço de monitoramento", "nome": "SRI-06-PE", "subbacia": "Rios Paraiba, Potenji e outros", "situacao": "Poço RIMAS equipado c medidor automático de nível", "uf": "PE", "uso_agua": "Sem uso"}, {"ponto": 2600041031, "UR Responsável": "SUREG-RE", "localizacao": "Secretaria de Agricultura de Apodi", "data_instalacao": "2011-07-22 00:00:00", "cota_terreno": 49.49, "latitude_decimal": -5.661667, "longitude_decimal": -37.787222, "utme": 634313, "utmn": 9374060, "bacia": "Atlantico Sul-N/NE", "municipio": "Apodi", "natureza": "Poço de monitoramento", "nome": "SRI-05-RN", "subbacia": "Rios Apodi, Piranhas e outros", "situacao": "Poço RIMAS equipado c medidor automático de nível", "uf": "RN", "uso_agua": "Sem uso"}, {"ponto": 2600042922, "UR Responsável": "SUREG-RE", "localizacao": "ROÇAS VELHAS", "data_instalacao": "2012-10-09 00:00:00", "cota_terreno": 545.87, "latitude_decimal": -8.088333, "longitude_decimal": -38.035556, "utme": 606252, "utmn": 9105802, "bacia": "Rio São Francisco", "municipio": "Calumbi", "natureza": "Poço de monitoramento", "nome": "SRI-07-PE", "subbacia": "Rios São Francisco, Pajeu e outros", "situacao": "Poço RIMAS equipado c medidor automático de nível", "uf": "PE", "uso_agua": "Sem uso"}, {"ponto": 2600047468, "UR Responsável": "SUREG-RE", "localizacao": "SITIO BOQUEIRÃO", "data_instalacao": "2011-11-21 00:00:00", "cota_terreno": 18.79, "latitude_decimal": -5.245, "longitude_decimal": -35.547778, "utme": 217576, "utmn": 9419666, "bacia": "Atlantico Sul-N/NE", "municipio": "Touros", "natureza": "Poço tubular", "nome": "SRH-01-RN", "subbacia": "Rios Paraiba, Potenji e outros", "situacao": "Poço RIMAS equipado c medidor automático de nível", "uf": "RN", "uso_agua": "Sem uso"}, {"ponto": 2600047469, "UR Responsável": "SUREG-RE", "localizacao": "SITIO CARANUBA", "data_instalacao": "2011-11-19 00:00:00", "cota_terreno": 47.6, "latitude_decimal": -5.291389, "longitude_decimal": -35.585278, "utme": 213432, "utmn": 9414525, "bacia": "Atlantico Sul-N/NE", "municipio": "Touros", "natureza": "Poço tubular", "nome": "SRH-02-RN", "subbacia": "Rios Paraiba, Potenji e outros", "situacao": "Poço RIMAS equipado c medidor automático de nível", "uf": "RN", "uso_agua": "Sem uso"}, {"ponto": 2600047470, "UR Responsável": "SUREG-RE", "localizacao": "FAZENDA MARIAZINHA", "data_instalacao": "2011-11-21 00:00:00", "cota_terreno": 57.95, "latitude_decimal": -5.2625, "longitude_decimal": -35.515, "utme": 221218, "utmn": 9417766, "bacia": "Atlantico Sul-N/NE", "municipio": "Touros", "natureza": "Poço tubular", "nome": "SRH-04-RN", "subbacia": "Rios Paraiba, Potenji e outros", "situacao": "Poço RIMAS equipado c medidor automático de nível", "uf": "RN", "uso_agua": "Sem uso"}, {"ponto": 2600047473, "UR Responsável": "SUREG-RE", "localizacao": "CONJUNTO JOSÉ VIEIRA DINIZ", "data_instalacao": "2011-11-16 00:00:00", "cota_terreno": 42.21, "latitude_decimal": -7.174444, "longitude_decimal": -34.911111, "utme": 288944, "utmn": 9206534, "bacia": "Atlantico Sul-N/NE", "municipio": "João Pessoa", "natureza": "Poço tubular", "nome": "CGP-01-PB", "subbacia": "Rios Paraiba, Potenji e outros", "situacao": "Poço RIMAS equipado c medidor automático de nível", "uf": "PB", "uso_agua": "Sem uso"}, {"ponto": 2600047476, "UR Responsável": "SUREG-RE", "localizacao": "MANGABEIRA II", "data_instalacao": "2011-11-18 00:00:00", "cota_terreno": 40.94, "latitude_decimal": -7.181944, "longitude_decimal": -34.843333, "utme": 296460, "utmn": 9205720, "bacia": "Atlantico Sul-N/NE", "municipio": "João Pessoa", "natureza": "Poço tubular", "nome": "CGP-04-PB", "subbacia": "Rios Paraiba, Potenji e outros", "situacao": "Poço RIMAS equipado c medidor automático de nível", "uf": "PB", "uso_agua": "Sem uso"}, {"ponto": 2600047480, "UR Responsável": "SUREG-RE", "localizacao": "ALTO DA BOA VISTA", "data_instalacao": "2011-11-18 00:00:00", "cota_terreno": 53.03, "latitude_decimal": -7.133889, "longitude_decimal": -34.938889, "utme": 285866, "utmn": 9211010, "bacia": "Atlantico Sul-N/NE", "municipio": "Bayeux", "natureza": "Poço tubular", "nome": "CGP-09-PB", "subbacia": "Rios Paraiba, Potenji e outros", "situacao": "Poço RIMAS desativado", "uf": "PB", "uso_agua": "Sem uso"}, {"ponto": 2600049197, "UR Responsável": "SUREG-RE", "localizacao": "SITIO BAIXA FUNDA", "data_instalacao": "2012-10-11 00:00:00", "cota_terreno": 672.57, "latitude_decimal": -8.761111, "longitude_decimal": -37.381667, "utme": 678019, "utmn": 9031181, "bacia": "Rio São Francisco", "municipio": "Tupanatinga", "natureza": "Poço de monitoramento", "nome": "SRI-08-PE", "subbacia": "Rios São Francisco, Moxoto e outros", "situacao": "Poço RIMAS equipado c medidor automático de nível", "uf": "PE", "uso_agua": "Sem uso"}, {"ponto": 2600049468, "UR Responsável": "SUREG-RE", "localizacao": "Serrinha de Cima", "data_instalacao": "2012-07-30 00:00:00", "cota_terreno": 223.46, "latitude_decimal": -5.508333, "longitude_decimal": -35.977778, "utme": 170027, "utmn": 9390314, "bacia": "Atlantico Sul-N/NE", "municipio": "Jardim de Angicos", "natureza": "Poço de monitoramento", "nome": "SRI-09-RN", "subbacia": "Rios Paraiba, Potenji e outros", "situacao": "Poço RIMAS equipado c medidor automático de nível", "uf": "RN", "uso_agua": "Sem uso"}, {"ponto": 2600049469, "UR Responsável": "SUREG-RE", "localizacao": "Assent, Primeiro de Maio lll", "data_instalacao": "2012-07-27 00:00:00", "cota_terreno": 107.01, "latitude_decimal": -5.664444, "longitude_decimal": -37.485278, "utme": 667739, "utmn": 9373654, "bacia": "Atlantico Sul-N/NE", "municipio": "Caraúbas", "natureza": "Poço de monitoramento", "nome": "SRI-08-RN", "subbacia": "Rios Apodi, Piranhas e outros", "situacao": "Poço RIMAS equipado c medidor automático de nível", "uf": "RN", "uso_agua": "Sem uso"}, {"ponto": 2600050937, "UR Responsável": "SUREG-RE", "localizacao": "Comunidade Areias", "data_instalacao": "2014-09-16 00:00:00", "cota_terreno": "", "latitude_decimal": -8.133333, "longitude_decimal": -38.076111, "utme": 601772, "utmn": 9100855, "bacia": "Rio São Francisco", "municipio": "Serra Talhada", "natureza": "Poço de monitoramento", "nome": "SRI-11-PE", "subbacia": "Rios São Francisco, Pajeu e outros", "situacao": "Poço RIMAS equipado c medidor automático de nível", "uf": "PE", "uso_agua": "Sem uso"}, {"ponto": 2600050938, "UR Responsável": "SUREG-RE", "localizacao": "FAZENDA GAMELEIRA", "data_instalacao": "2013-11-22 00:00:00", "cota_terreno": "", "latitude_decimal": -8.084722, "longitude_decimal": -38.690556, "utme": 534079, "utmn": 9106308, "bacia": "Rio São Francisco", "municipio": "Mirandiba", "natureza": "Poço de monitoramento", "nome": "SRI-10-PE", "subbacia": "Rios São Francisco, Pajeu e outros", "situacao": "Poço RIMAS equipado c medidor automático de nível", "uf": "PE", "uso_agua": "Sem uso"}, {"ponto": 2600050939, "UR Responsável": "SUREG-RE", "localizacao": "Santana de Caiçarinha", "data_instalacao": "2014-09-16 00:00:00", "cota_terreno": "", "latitude_decimal": -8.157778, "longitude_decimal": -38.093333, "utme": 599878, "utmn": 9098158, "bacia": "Rio São Francisco", "municipio": "Serra Talhada", "natureza": "Poço de monitoramento", "nome": "SRI-12-PE", "subbacia": "Rios São Francisco, Pajeu e outros", "situacao": "Poço RIMAS equipado c medidor automático de nível", "uf": "PE", "uso_agua": "Sem uso"}, {"ponto": 2600055019, "UR Responsável": "SUREG-RE", "localizacao": "COMUNIDADE ANIL", "data_instalacao": "2014-09-17 00:00:00", "cota_terreno": "", "latitude_decimal": -8.713889, "longitude_decimal": -37.576389, "utme": 656606, "utmn": 9036485, "bacia": "Rio São Francisco", "municipio": "Ibimirim", "natureza": "Poço de monitoramento", "nome": "SRI-13-PE", "subbacia": "Rios São Francisco, Moxoto e outros", "situacao": "Poço RIMAS equipado c medidor automático de nível", "uf": "PE", "uso_agua": "Sem uso"}, {"ponto": 2600067137, "UR Responsável": "SUREG-RE", "localizacao": "Parque Gertrudes de A, Leão", "data_instalacao": "2019-06-03 00:00:00", "cota_terreno": 60, "latitude_decimal": -9.63, "longitude_decimal": -35.743333, "utme": 198906, "utmn": 8934283, "bacia": "Atlantico Sul-N/NE", "municipio": "Maceió", "natureza": "Poço tubular", "nome": "SRI-01-AL", "subbacia": "Rios Paraiba, Potenji e outros", "situacao": "Poço RIMAS equipado c medidor automático de nível", "uf": "AL", "uso_agua": "Sem uso"}, {"ponto": 2600067138, "UR Responsável": "SUREG-RE", "localizacao": "Praça Arnon de Mello", "data_instalacao": "2019-06-01 00:00:00", "cota_terreno": 57, "latitude_decimal": -9.633056, "longitude_decimal": -35.7425, "utme": 198980, "utmn": 8933953, "bacia": "Atlantico Sul-N/NE", "municipio": "Maceió", "natureza": "", "nome": "SRI-02-AL", "subbacia": "Rios Paraiba, Potenji e outros", "situacao": "Poço RIMAS equipado c medidor automático de nível", "uf": "AL", "uso_agua": "Sem uso"}, {"ponto": 2600067139, "UR Responsável": "SUREG-RE", "localizacao": "Area verde do conjunto Divaldo Suruagi", "data_instalacao": "2019-06-10 00:00:00", "cota_terreno": 52, "latitude_decimal": -9.635556, "longitude_decimal": -35.741389, "utme": 199132, "utmn": 8933677, "bacia": "Atlantico Sul-N/NE", "municipio": "Maceió", "natureza": "Poço tubular", "nome": "SRI-03-AL", "subbacia": "Rios Paraiba, Potenji e outros", "situacao": "Poço RIMAS equipado c medidor automático de nível", "uf": "AL", "uso_agua": "Sem uso"}, {"ponto": 2600067140, "UR Responsável": "SUREG-RE", "localizacao": "Rua Paranangue", "data_instalacao": "2019-06-13 00:00:00", "cota_terreno": 61, "latitude_decimal": -9.638889, "longitude_decimal": -35.744722, "utme": 198741, "utmn": 8933287, "bacia": "Atlantico Sul-N/NE", "municipio": "Maceió", "natureza": "Poço tubular", "nome": "SRI-04-AL", "subbacia": "Rios Paraiba, Potenji e outros", "situacao": "Poço RIMAS equipado c medidor automático de nível", "uf": "AL", "uso_agua": "Sem uso"}, {"ponto": 2600067141, "UR Responsável": "SUREG-RE", "localizacao": "Escola Luiz Calheiros Júnior", "data_instalacao": "2019-07-04 00:00:00", "cota_terreno": 55, "latitude_decimal": -9.635278, "longitude_decimal": -35.746389, "utme": 198557, "utmn": 8933687, "bacia": "Atlantico Sul-N/NE", "municipio": "Maceió", "natureza": "Poço tubular", "nome": "SRI-05-AL", "subbacia": "Rios Paraiba, Potenji e outros", "situacao": "Poço RIMAS equipado c medidor automático de nível", "uf": "AL", "uso_agua": "Sem uso"}, {"ponto": 2600067142, "UR Responsável": "SUREG-RE", "localizacao": "CEPA-Centro Educacional de Pesquisa Aplicada", "data_instalacao": "2019-07-04 00:00:00", "cota_terreno": 60, "latitude_decimal": -9.641944, "longitude_decimal": -35.741667, "utme": 199086, "utmn": 8932976, "bacia": "Atlantico Sul-N/NE", "municipio": "Maceió", "natureza": "Poço tubular", "nome": "SRI-06-AL", "subbacia": "Rios Paraiba, Potenji e outros", "situacao": "Poço RIMAS equipado c medidor automático de nível", "uf": "AL", "uso_agua": "Sem uso"}, {"ponto": 2600078928, "UR Responsável": "SUREG-RE", "localizacao": "SITIO SALGADO", "data_instalacao": "", "cota_terreno": 446.5, "latitude_decimal": -8.517155, "longitude_decimal": -37.523571, "utme": 662507, "utmn": 9058219, "bacia": "Rio São Francisco", "municipio": "Ibimirim", "natureza": "Poço tubular", "nome": "SRI-20-PE", "subbacia": "Rios São Francisco, Moxoto e outros", "situacao": "Poço RIMAS equipado c medidor automático de nível", "uf": "PE", "uso_agua": ""}, {"ponto": 2600078956, "UR Responsável": "SUREG-RE", "localizacao": "SITIO CARUA", "data_instalacao": "", "cota_terreno": 461.41, "latitude_decimal": -8.623554, "longitude_decimal": -37.485617, "utme": 666639, "utmn": 9046436, "bacia": "Rio São Francisco", "municipio": "Ibimirim", "natureza": "Poço tubular", "nome": "SRI-14-PE", "subbacia": "Rios São Francisco, Moxoto e outros", "situacao": "Poço RIMAS não equipado", "uf": "PE", "uso_agua": ""}, {"ponto": 2600078957, "UR Responsável": "SUREG-RE", "localizacao": "SITIO CUMBRE", "data_instalacao": "", "cota_terreno": 461.41, "latitude_decimal": -8.544301, "longitude_decimal": -37.381151, "utme": 678174, "utmn": 9055154, "bacia": "Rio São Francisco", "municipio": "Tupanatinga", "natureza": "Poço tubular", "nome": "SRI-15-PE", "subbacia": "Rios São Francisco, Moxoto e outros", "situacao": "Poço RIMAS não equipado", "uf": "PE", "uso_agua": ""}, {"ponto": 2600078958, "UR Responsável": "SUREG-RE", "localizacao": "SITIO CARNAUBA", "data_instalacao": "", "cota_terreno": 383.72, "latitude_decimal": -8.849873, "longitude_decimal": -37.583219, "utme": 655803, "utmn": 9021449, "bacia": "Rio São Francisco", "municipio": "Manari", "natureza": "Poço tubular", "nome": "SRI-16-PE", "subbacia": "Rios São Francisco, Moxoto e outros", "situacao": "Poço RIMAS não equipado", "uf": "PE", "uso_agua": ""}, {"ponto": 2600078959, "UR Responsável": "SUREG-RE", "localizacao": "SITIO POÇO DANTAS", "data_instalacao": "", "cota_terreno": 236.29, "latitude_decimal": -8.921357, "longitude_decimal": -37.830951, "utme": 628531, "utmn": 9013639, "bacia": "Rio São Francisco", "municipio": "Inajá", "natureza": "Poço tubular", "nome": "SRI-18-PE", "subbacia": "Rios São Francisco, Moxoto e outros", "situacao": "Poço RIMAS não equipado", "uf": "PE", "uso_agua": ""}, {"ponto": 2600078960, "UR Responsável": "SUREG-RE", "localizacao": "SITIO MELANCIA", "data_instalacao": "", "cota_terreno": 236.29, "latitude_decimal": -8.959758, "longitude_decimal": -37.927421, "utme": 617911, "utmn": 9009425, "bacia": "Rio São Francisco", "municipio": "Inajá", "natureza": "Poço tubular", "nome": "SRI-17-PE", "subbacia": "Rios São Francisco, Moxoto e outros", "situacao": "Poço RIMAS não equipado", "uf": "PE", "uso_agua": ""}, {"ponto": 2600078961, "UR Responsável": "SUREG-RE", "localizacao": "ASS, ANTONIO CONSELHEIRO - AGROVILA 3", "data_instalacao": "", "cota_terreno": 378.35, "latitude_decimal": -9.029579, "longitude_decimal": -38.182357, "utme": 589866, "utmn": 9001777, "bacia": "Rio São Francisco", "municipio": "Tacaratu", "natureza": "Poço tubular", "nome": "SRI-19-PE", "subbacia": "Rios São Francisco, Moxoto e outros", "situacao": "Poço RIMAS não equipado", "uf": "PE", "uso_agua": ""}, {"ponto": 2600080442, "UR Responsável": "SUREG-RE", "localizacao": "AGROVILA SANTARÉM", "data_instalacao": "", "cota_terreno": 112.86, "latitude_decimal": -5.526674, "longitude_decimal": -36.597939, "utme": 766132, "utmn": 9388580, "bacia": "Atlantico Sul-N/NE", "municipio": "Afonso Bezerra", "natureza": "Poço tubular", "nome": "SRI-13-RN", "subbacia": "Rios Apodi, Piranhas e outros", "situacao": "Seco", "uf": "RN", "uso_agua": ""}, {"ponto": 2600080443, "UR Responsável": "SUREG-RE", "localizacao": "AGROVILA OLHO D'ÁGUA", "data_instalacao": "", "cota_terreno": 41.53, "latitude_decimal": -5.488645, "longitude_decimal": -36.743286, "utme": 750036, "utmn": 9392850, "bacia": "Atlantico Sul-N/NE", "municipio": "Ipanguaçu", "natureza": "Poço tubular", "nome": "SRI-12-RN", "subbacia": "Rios Apodi, Piranhas e outros", "situacao": "Poço RIMAS não equipado", "uf": "RN", "uso_agua": ""},